timestamp,timestamp_sample,lat,lon,alt,alt_ellipsoid,delta_alt,eph,epv,terrain_alt,lat_lon_reset_counter,alt_reset_counter,terrain_alt_valid,dead_reckoning
5412000,5412000,36.32157739400268,127.41172240661848,28.664495,28.646002,-0.0,1.4142135,1.3503596,28.575182,2,0,1,0
5420000,5420000,36.32157739446479,127.41172240529325,28.665073,28.64658,-0.0,1.4142162,1.3503612,28.57518,2,0,1,0
6412000,6412000,36.321577379684584,127.41172237426343,28.683775,28.663712,-0.0,1.2341954,1.2081944,28.575603,2,0,1,0
7412000,7412000,36.32157739000282,127.41172242674662,28.66335,28.641335,-0.0,1.1497917,1.1555928,28.56839,2,0,1,0
8412000,8412000,36.3215774605809,127.41172235511141,28.662403,28.640884,-0.0,1.1398638,1.1431266,28.564753,2,0,1,0
9412000,9412000,36.32157735592134,127.41172241219877,28.678633,28.656559,-0.0,1.114876,1.1290725,28.59184,2,0,1,0
10412000,10412000,36.321577290043585,127.41172244601805,28.705389,28.68062,-0.0,1.1210033,1.1271689,28.599977,2,0,1,0
11412000,11412000,36.321577306259314,127.41172243029516,28.684277,28.656364,-0.0,1.1062875,1.120417,28.576908,2,0,1,0
12412000,12412000,36.32157741846517,127.41172237321021,28.678957,28.650816,-0.0,1.1157839,1.123812,28.584948,2,0,1,0
13412000,13412000,36.32157739608473,127.41172227631164,28.676193,28.646614,-0.0,1.1038061,1.1173161,28.578934,2,0,1,0
14412000,14412000,36.3215774149627,127.41172215229003,28.675968,28.646656,-0.0,1.1141502,1.1208973,28.580984,2,0,1,0
15412000,15412000,36.32157747193718,127.41172226947309,28.665337,28.635542,-0.0,1.1030514,1.1171262,28.574148,2,0,1,0
16412000,16412000,36.32157747145939,127.41172229092821,28.662485,28.633146,-0.0,1.1135045,1.1174989,28.565235,2,0,1,0
17412000,17412000,36.32157746445021,127.41172236412359,28.669634,28.64113,-0.0,1.102796,1.1162312,28.572783,2,0,1,0
18412000,18412000,36.321577417698826,127.41172229761946,28.658152,28.630579,-0.0,1.1130948,1.1179332,28.560211,2,0,1,0
19412000,19412000,36.32157729113498,127.4117222012365,28.655367,28.629711,-0.0,1.102649,1.1125355,28.563536,2,0,1,0
20412000,20412000,36.321577339835905,127.41172230300191,28.653833,28.629831,-0.0,1.0961325,1.1099517,28.564837,2,0,1,0
21412000,21412000,36.321577399964355,127.41172236209339,28.63875,28.61729,-0.0,1.0932214,1.1062087,28.548594,2,0,1,0
22412000,22412000,36.32157738301863,127.41172226484314,28.626295,28.607403,-0.0,1.105209,1.1085541,28.534353,2,0,1,0
23412000,23412000,36.32157731842096,127.41172224803923,28.62258,28.607845,-0.0,1.098592,1.1071656,28.544142,2,0,1,0
24412000,24412000,36.32157728930177,127.41172227295974,28.628923,28.616152,-0.0,1.1094569,1.1093976,28.535378,2,0,1,0
25412000,25412000,36.32157726196698,127.41172219079097,28.617641,28.608358,-0.0,1.1008352,1.1060545,28.537462,2,0,1,0
26412000,26412000,36.32157731805053,127.4117222146278,28.60618,28.600285,-0.0,1.1107876,1.1083511,28.517029,2,0,1,0
27412000,27412000,36.321577400846444,127.41172224605079,28.587534,28.58798,-0.0,1.101505,1.1053381,28.51289,2,0,1,0
28412000,28412000,36.321577468782166,127.41172231673018,28.574856,28.580072,-0.0,1.1109821,1.1079273,28.483173,2,0,1,0
29412000,29412000,36.32157747814224,127.41172226420069,28.556664,28.571096,-0.0,1.1015795,1.1050926,28.482481,2,0,1,0
30412000,30412000,36.3215774944693,127.41172229743059,28.545118,28.5649,-0.0,1.1108445,1.107668,28.453108,2,0,1,0
31412000,31412000,36.32157763106886,127.41172212430443,28.535206,28.564459,-0.0,1.1014873,1.1066537,28.454174,2,0,1,0
32412000,32412000,36.321577520679,127.41172212263743,28.546865,28.581602,-0.0,1.110665,1.1090788,28.458208,2,0,1,0
33412000,33412000,36.321577523464676,127.41172210767412,28.565485,28.606031,-0.0,1.1013812,1.1060063,28.4766,2,0,1,0
34412000,34412000,36.32157744195702,127.41172212893315,28.581768,28.623932,-0.0,1.1105168,1.1069876,28.47838,2,0,1,0
35412000,35412000,36.321577428468466,127.4117221031676,28.572575,28.617506,-0.0,1.1012945,1.1046249,28.481623,2,0,1,0
36412000,36412000,36.32157743831177,127.41172212475732,28.556997,28.605812,-0.0,1.0942773,1.103951,28.476357,2,0,1,0
37412000,37412000,36.321577516147045,127.41172217116049,28.547825,28.600111,-0.0,1.1045301,1.1065333,28.4604,2,0,1,0
38412000,38412000,36.32157757568815,127.41172222375614,28.524437,28.582893,-0.0,1.0980065,1.1057276,28.464659,2,0,1,0
39412000,39412000,36.32157748760695,127.41172228878072,28.521404,28.584635,-0.0,1.1079878,1.1067402,28.435007,2,0,1,0
40412000,40412000,36.321577474527004,127.41172230168131,28.498755,28.569996,-0.0,1.0999583,1.1043503,28.4304,2,0,1,0
41412000,41412000,36.321577407461554,127.41172228179919,28.483461,28.561367,-0.0,1.1094784,1.1073028,28.400377,2,0,1,0
42412000,42412000,36.32157728045995,127.41172239169669,28.461252,28.550354,-0.0,1.1007481,1.1047236,28.399609,2,0,1,0
43412000,43412000,36.3215773600237,127.41172243311517,28.460997,28.557848,-0.0,1.1099831,1.1074083,28.38262,2,0,1,0
44412000,44412000,36.32157739572587,127.4117225275317,28.468355,28.57487,-0.0,1.1010023,1.1065091,28.389305,2,0,1,0
45412000,45412000,36.32157735912369,127.41172247727376,28.470818,28.583065,-0.0,1.1101121,1.1074302,28.380043,2,0,1,0
46412000,46412000,36.321577314306026,127.41172247324998,28.459415,28.578884,-0.0,1.1010623,1.1046865,28.391413,2,0,1,0
47412000,47412000,36.32157730214248,127.41172254802008,28.463957,28.589367,-0.0,1.1101228,1.107413,28.376709,2,0,1,0
48412000,48412000,36.32157732701596,127.41172249446623,28.475662,28.606197,-0.0,1.1033254,1.1049374,28.38535,2,0,1,0
49412000,49412000,36.32157729223803,127.41172247334015,28.462048,28.5986,-0.0,1.097272,1.1045771,28.37876,2,0,1,0
50412000,50412000,36.32157730314985,127.41172249451792,28.440857,28.58301,-0.0,1.107308,1.1075251,28.351421,2,0,1,0
51412000,51412000,36.32157722085478,127.41172268878644,28.439425,28.589212,-0.0,1.0995773,1.1050715,28.37327,2,0,1,0
52412000,52412000,36.32157717221358,127.41172272053909,28.443655,28.597439,-0.0,1.1091508,1.1061674,28.35616,2,0,1,0
53412000,53412000,36.32157720414669,127.41172262625524,28.443392,28.60338,-0.0,1.1005685,1.1053895,28.372038,2,0,1,0
54412000,54412000,36.321577266200194,127.41172268073646,28.46356,28.62601,-0.0,1.1098236,1.106541,28.375004,2,0,1,0
55412000,55412000,36.32157726506664,127.41172265280663,28.468374,28.632294,-0.0,1.1009135,1.1059035,28.387728,2,0,1,0
56412000,56412000,36.32157731875374,127.41172265378266,28.483522,28.648079,-0.0,1.1100227,1.1068766,28.392168,2,0,1,0
57412000,57412000,36.32157734962694,127.41172265031749,28.498009,28.661509,-0.0,1.1010114,1.1061313,28.408928,2,0,1,0
58412000,58412000,36.32157738603935,127.41172270274569,28.50799,28.669464,-0.0,1.0941031,1.1036136,28.425657,2,0,1,0
59412000,59412000,36.32157750419411,127.41172254363597,28.529606,28.68683,-0.0,1.0907406,1.1032224,28.441092,2,0,1,0
60412000,60412000,36.32157757808464,127.41172256624544,28.537077,28.690598,-0.0,1.101783,1.1044773,28.441242,2,0,1,0
61412000,61412000,36.32157761200169,127.41172240915327,28.522453,28.672338,-0.0,1.0964998,1.104358,28.432323,2,0,1,0
62412000,62412000,36.32157766724221,127.411722417121,28.524511,28.672369,-0.0,1.1069546,1.1057833,28.428226,2,0,1,0
63412000,63412000,36.32157769381064,127.41172234012672,28.52256,28.66715,-0.0,1.0994196,1.1054872,28.431046,2,0,1,0
64412000,64412000,36.321577624402565,127.41172230991452,28.53917,28.68163,-0.0,1.1091172,1.1068239,28.444063,2,0,1,0
65412000,65412000,36.32157758632486,127.4117224270827,28.55589,28.692604,-0.0,1.1005607,1.1059623,28.46319,2,0,1,0
66412000,66412000,36.321577619620975,127.4117225131979,28.593502,28.724483,-0.0,1.1098375,1.1070282,28.486578,2,0,1,0
67412000,67412000,36.32157759420013,127.41172252049056,28.623812,28.743345,-0.0,1.1009232,1.1062783,28.509235,2,0,1,0
68412000,68412000,36.32157760359423,127.41172245155366,28.64884,28.759762,-0.0,1.1100332,1.1089425,28.535866,2,0,1,0
69412000,69412000,36.32157757690227,127.41172247495962,28.662197,28.758371,-0.0,1.1010174,1.1076779,28.54939,2,0,1,0
70412000,70412000,36.32157750804875,127.41172248045727,28.684807,28.77113,-0.0,1.1100711,1.1082132,28.574259,2,0,1,0
71412000,71412000,36.32157756661584,127.41172251666443,28.697977,28.768366,-0.0,1.1010336,1.1055077,28.585575,2,0,1,0
72412000,72412000,36.32157765761734,127.41172254572253,28.709967,28.76996,-0.0,1.1100746,1.1065028,28.602003,2,0,1,0
73412000,73412000,36.32157763047823,127.41172251600982,28.724123,28.768505,-0.0,1.1010343,1.1058182,28.622898,2,0,1,0
74412000,74412000,36.321577532224616,127.41172250214022,28.728315,28.761873,-0.0,1.1100705,1.1086965,28.621485,2,0,1,0
75412000,75412000,36.321577402359544,127.41172246653485,28.71242,28.733343,-0.0,1.1010317,1.1075131,28.612614,2,0,1,0
76412000,76412000,36.32157732935341,127.4117225287972,28.709177,28.72293,-0.0,1.1100658,1.1064063,28.611828,2,0,1,0
77412000,77412000,36.32157733125617,127.41172261342274,28.71854,28.722677,-0.0,1.1010288,1.1057054,28.615665,2,0,1,0
78412000,78412000,36.321577361542445,127.41172258007619,28.70656,28.704119,-0.0,1.1100645,1.1083406,28.6059,2,0,1,0
79412000,79412000,36.321577411686654,127.4117225886087,28.683102,28.675081,-0.0,1.1010277,1.1053793,28.592585,2,0,1,0
80412000,80412000,36.32157738923618,127.41172247962231,28.671713,28.661896,-0.0,1.1100626,1.106269,28.57489,2,0,1,0
81412000,81412000,36.32157743232362,127.41172251787316,28.651531,28.640617,-0.0,1.1010268,1.1056774,28.563417,2,0,1,0
82412000,82412000,36.32157747807254,127.41172250459559,28.644072,28.633762,-0.0,1.0949886,1.1019392,28.558853,2,0,1,0
83412000,83412000,36.32157746068365,127.41172245846121,28.637339,28.628086,-0.0,1.1051762,1.1053495,28.549173,2,0,1,0
84412000,84412000,36.32157752192294,127.41172237225894,28.623205,28.6163,-0.0,1.0983697,1.1050624,28.541039,2,0,1,0
85412000,85412000,36.321577424454574,127.41172237981952,28.617682,28.613455,-0.0,1.1082085,1.1063135,28.529877,2,0,1,0
86412000,86412000,36.32157745268214,127.41172240502215,28.61894,28.618067,-0.0,1.1000655,1.1057518,28.524137,2,0,1,0
87412000,87412000,36.32157745519865,127.4117224253306,28.602247,28.603657,-0.0,1.1094823,1.1084551,28.51387,2,0,1,0
88412000,88412000,36.32157753642676,127.41172245041973,28.601946,28.608393,-0.0,1.1007386,1.107293,28.511236,2,0,1,0
89412000,89412000,36.32157755692315,127.41172244545737,28.610647,28.61947,-0.0,1.1099176,1.1079155,28.511211,2,0,1,0
90412000,90412000,36.321577649254046,127.41172238274586,28.626093,28.637205,-0.0,1.1009597,1.1051302,28.521132,2,0,1,0
91412000,91412000,36.32157761665765,127.41172244087022,28.61421,28.627407,-0.0,1.0957835,1.104655,28.511131,2,0,1,0
92412000,92412000,36.32157765077509,127.41172249364733,28.623991,28.638424,-0.0,1.1059691,1.1057999,28.52116,2,0,1,0
93412000,93412000,36.3215776254541,127.4117224527702,28.645897,28.660318,-0.0,1.0988283,1.1053308,28.541843,2,0,1,0
94412000,94412000,36.321577499559226,127.41172242176947,28.657732,28.670523,-0.0,1.1085825,1.1065108,28.551224,2,0,1,0
95412000,95412000,36.32157741801983,127.41172254164269,28.671066,28.680565,-0.0,1.1025211,1.1062012,28.567377,2,0,1,0
96412000,96412000,36.32157730485264,127.41172261465083,28.688917,28.6921,-0.0,1.096853,1.1042855,28.577377,2,0,1,0
97412000,97412000,36.3215772809974,127.41172261066268,28.68886,28.688309,-0.0,1.1070617,1.10571,28.5865,2,0,1,0
98412000,98412000,36.32157719013341,127.41172255669424,28.68769,28.681852,-0.0,1.0994537,1.1036983,28.587246,2,0,1,0
99412000,99412000,36.32157716569271,127.41172251078338,28.698416,28.688465,-0.0,1.109082,1.1068963,28.59443,2,0,1,0
100412000,100412000,36.321577133749166,127.41172250389994,28.721806,28.70458,-0.0,1.1005347,1.1045599,28.605396,2,0,1,0
101412000,101412000,36.32157715036208,127.41172254412541,28.7155,28.693844,-0.0,1.1098034,1.107438,28.610073,2,0,1,0
102412000,102412000,36.32157714278779,127.41172245785461,28.730572,28.70261,-0.0,1.1009039,1.1066204,28.622133,2,0,1,0
103412000,103412000,36.321577106532,127.41172241760344,28.731836,28.699543,-0.0,1.1100117,1.1076775,28.632244,2,0,1,0
104412000,104412000,36.32157712013704,127.41172234586038,28.747982,28.709526,-0.0,1.103262,1.1053203,28.643507,2,0,1,0
105412000,105412000,36.321576975181486,127.41172230568334,28.747984,28.701668,-0.0,1.0972352,1.1048366,28.640238,2,0,1,0
106412000,106412000,36.32157700450089,127.41172233511266,28.750961,28.699818,-0.0,1.1072693,1.1077287,28.651648,2,0,1,0
107412000,107412000,36.32157697286275,127.41172225349443,28.75486,28.697039,-0.0,1.0995543,1.106775,28.64644,2,0,1,0
108412000,108412000,36.32157700228752,127.41172230519005,28.753098,28.69101,-0.0,1.1091253,1.1074854,28.650612,2,0,1,0
109412000,109412000,36.32157696296334,127.41172235659867,28.737703,28.671227,-0.0,1.1005546,1.1050495,28.64139,2,0,1,0
110412000,110412000,36.321576955625495,127.41172230893959,28.731817,28.663193,-0.0,1.1098045,1.1081287,28.6356,2,0,1,0
111412000,111412000,36.32157695351612,127.4117224309643,28.705769,28.636808,-0.0,1.1009029,1.1054461,28.616549,2,0,1,0
112412000,112412000,36.32157707327469,127.41172243165803,28.681005,28.613466,-0.0,1.1100018,1.1079079,28.58843,2,0,1,0
113412000,113412000,36.321577128519195,127.41172237736801,28.656086,28.593843,-0.0,1.1009982,1.1065457,28.580036,2,0,1,0
114412000,114412000,36.32157710135253,127.41172239479093,28.655788,28.59718,-0.0,1.1100471,1.1087095,28.567152,2,0,1,0
115412000,115412000,36.32157704217243,127.4117225080888,28.654728,28.601307,-0.0,1.1010191,1.1054795,28.568985,2,0,1,0
116412000,116412000,36.32157723723933,127.41172261040005,28.651796,28.601145,-0.0,1.1100614,1.1078225,28.553135,2,0,1,0
117412000,117412000,36.32157734334041,127.41172266509973,28.653332,28.607346,-0.0,1.1010268,1.1064867,28.558922,2,0,1,0
118412000,118412000,36.321577310902825,127.41172264546385,28.655313,28.61169,-0.0,1.1100675,1.1085442,28.556297,2,0,1,0
119412000,119412000,36.321577297796686,127.41172269562792,28.66792,28.627459,-0.0,1.1010301,1.1087339,28.57132,2,0,1,0
120412000,120412000,36.321577355913156,127.41172259561803,28.689299,28.649105,-0.0,1.1100701,1.1087538,28.585493,2,0,1,0
121412000,121412000,36.32157736884561,127.41172249254693,28.699297,28.657572,-0.0,1.1010317,1.1072592,28.585752,2,0,1,0
122412000,122412000,36.321577437018554,127.41172252583088,28.6978,28.65475,-0.0,1.1100727,1.1094189,28.590658,2,0,1,0
123412000,123412000,36.32157749367675,127.41172255227266,28.708912,28.663715,-0.0,1.1010337,1.1060936,28.595371,2,0,1,0
124412000,124412000,36.32157747885222,127.41172261967468,28.720198,28.673895,-0.0,1.1100745,1.1067455,28.61382,2,0,1,0
125412000,125412000,36.32157742145637,127.41172275430223,28.738203,28.68745,-0.0,1.1010346,1.1045362,28.633,2,0,1,0
126412000,126412000,36.32157730285922,127.41172272194676,28.752523,28.697458,-0.0,1.0958173,1.1043825,28.638111,2,0,1,0
127412000,127412000,36.32157725038843,127.4117226928732,28.756927,28.69674,-0.0,1.1059827,1.1055229,28.64655,2,0,1,0
128412000,128412000,36.321577105207744,127.41172265885633,28.741333,28.675676,-0.0,1.0988342,1.1049671,28.635214,2,0,1,0
129412000,129412000,36.32157712581356,127.41172254153486,28.74741,28.678911,-0.0,1.1085813,1.1075902,28.645864,2,0,1,0
130412000,130412000,36.321577094565725,127.41172244352326,28.747866,28.67539,-0.0,1.1002667,1.1048123,28.640188,2,0,1,0
131412000,131412000,36.32157716285454,127.41172247967816,28.74559,28.67076,-0.0,1.1096214,1.1075085,28.644115,2,0,1,0
132412000,132412000,36.321577224307696,127.41172247255331,28.747799,28.66974,-0.0,1.1008103,1.1065643,28.650043,2,0,1,0
133412000,133412000,36.321577260333406,127.41172250175612,28.740337,28.66048,-0.0,1.1099588,1.1090913,28.639076,2,0,1,0
134412000,134412000,36.321577281689024,127.41172244464585,28.735685,28.654633,-0.0,1.1009796,1.1076211,28.638802,2,0,1,0
135412000,135412000,36.32157719980794,127.41172244170933,28.72978,28.648205,-0.0,1.110046,1.1098279,28.63273,2,0,1,0
136412000,136412000,36.32157724420643,127.41172231809811,28.72068,28.638773,-0.0,1.1010202,1.1063535,28.625248,2,0,1,0
137412000,137412000,36.3215772653695,127.4117223406386,28.698109,28.618414,-0.0,1.095809,1.1036409,28.61102,2,0,1,0
138412000,138412000,36.32157729278423,127.41172228604115,28.673487,28.59665,-0.0,1.1059688,1.1048032,28.579712,2,0,1,0
139412000,139412000,36.32157727298829,127.41172229946065,28.64112,28.571754,-0.0,1.0988243,1.1045126,28.551495,2,0,1,0
140412000,140412000,36.32157740264505,127.41172219328193,28.617414,28.555948,-0.0,1.1085653,1.1057085,28.537754,2,0,1,0
141412000,141412000,36.321577480557686,127.41172208904104,28.597157,28.547947,-0.0,1.1002566,1.1050925,28.522305,2,0,1,0
142412000,142412000,36.32157744818093,127.41172206821443,28.586613,28.54604,-0.0,1.1096084,1.1076823,28.498512,2,0,1,0
143412000,143412000,36.321577466984145,127.41172204965233,28.578564,28.55034,-0.0,1.1008022,1.1050442,28.49172,2,0,1,0
144412000,144412000,36.321577445814405,127.41172210652311,28.586847,28.565742,-0.0,1.1099552,1.1079811,28.489397,2,0,1,0
145412000,145412000,36.32157742190556,127.41172212208794,28.60258,28.58956,-0.0,1.1009779,1.1055311,28.499676,2,0,1,0
146412000,146412000,36.32157749518489,127.41172225749212,28.628782,28.618551,-0.0,1.1100533,1.1066012,28.520775,2,0,1,0
147412000,147412000,36.321577520300416,127.41172247383597,28.660967,28.65112,-0.0,1.1010255,1.1058384,28.544329,2,0,1,0
148412000,148412000,36.32157748058479,127.41172245314195,28.699184,28.687254,-0.0,1.1100768,1.1085695,28.585173,2,0,1,0
149412000,149412000,36.32157746426825,127.41172252329969,28.736353,28.716223,-0.0,1.1010371,1.1059119,28.613443,2,0,1,0
150412000,150412000,36.32157741768716,127.41172260170194,28.750397,28.723806,-0.0,1.1100777,1.1069839,28.64008,2,0,1,0
151412000,151412000,36.32157734024845,127.41172270341333,28.75887,28.722519,-0.0,1.101036,1.1061982,28.644674,2,0,1,0
152412000,152412000,36.3215773662924,127.4117227739887,28.75324,28.710787,-0.0,1.1100715,1.107244,28.645754,2,0,1,0
153412000,153412000,36.32157739481298,127.41172280458146,28.767948,28.716568,-0.0,1.1010323,1.1047214,28.651161,2,0,1,0
154412000,154412000,36.321577362846206,127.41172273964801,28.76424,28.707634,-0.0,1.1100682,1.105858,28.662004,2,0,1,0
155412000,155412000,36.3215773401535,127.4117227112201,28.760262,28.695833,-0.0,1.1010303,1.1052688,28.655842,2,0,1,0
156412000,156412000,36.321577338169845,127.41172256223886,28.750587,28.68287,-0.0,1.1100658,1.1061842,28.650026,2,0,1,0
157412000,157412000,36.32157730221151,127.41172253260238,28.751253,28.679165,-0.0,1.1010287,1.1053979,28.642406,2,0,1,0
158412000,158412000,36.321577240613,127.41172250677639,28.739878,28.665499,-0.0,1.1100678,1.106566,28.632854,2,0,1,0
159412000,159412000,36.32157721545581,127.41172248480406,28.731543,28.65468,-0.0,1.1010301,1.1044409,28.622387,2,0,1,0
160412000,160412000,36.32157720574754,127.41172248430479,28.752195,28.673439,-0.0,1.110074,1.1072122,28.648558,2,0,1,0
161412000,161412000,36.32157711872869,127.41172246552662,28.772568,28.688297,-0.0,1.1010344,1.1062764,28.656118,2,0,1,0
162412000,162412000,36.321577056788655,127.4117225270643,28.78765,28.699333,-0.0,1.1100773,1.1072651,28.675209,2,0,1,0
163412000,163412000,36.3215770745773,127.41172239667763,28.788462,28.693766,-0.0,1.1010365,1.1049984,28.666046,2,0,1,0
164412000,164412000,36.32157714531846,127.41172238757288,28.785233,28.686798,-0.0,1.1100754,1.1063601,28.680483,2,0,1,0
165412000,165412000,36.32157715885409,127.4117224593413,28.796867,28.692497,-0.0,1.1010344,1.1041166,28.687761,2,0,1,0
166412000,166412000,36.32157721014633,127.41172232943745,28.787281,28.67982,-0.0,1.1100708,1.1055017,28.681684,2,0,1,0
167412000,167412000,36.321577302276225,127.4117222574755,28.79693,28.68404,-0.0,1.1010321,1.1067082,28.6956,2,0,1,0
168412000,168412000,36.32157733659989,127.41172227598767,28.79443,28.67834,-0.0,1.1100695,1.1059846,28.686047,2,0,1,0
169412000,169412000,36.32157736689137,127.4117221984955,28.797884,28.677822,-0.0,1.1010313,1.1054218,28.694378,2,0,1,0
170412000,170412000,36.32157735855714,127.41172219489421,28.802612,28.679272,-0.0,1.1100699,1.1083332,28.698824,2,0,1,0
171412000,171412000,36.32157740613281,127.41172220433349,28.790237,28.663677,-0.0,1.1010311,1.1056414,28.671854,2,0,1,0
172412000,172412000,36.32157754083216,127.4117222532362,28.782183,28.654936,-0.0,1.1100692,1.1083943,28.682156,2,0,1,0
173412000,173412000,36.32157758976373,127.41172236871672,28.77337,28.645845,-0.0,1.1010312,1.1072809,28.667524,2,0,1,0
174412000,174412000,36.32157759904114,127.41172237580271,28.758465,28.631569,-0.0,1.095814,1.1046345,28.661638,2,0,1,0
175412000,175412000,36.32157760866474,127.41172227003024,28.741095,28.615562,-0.0,1.1059746,1.1071038,28.647284,2,0,1,0
176412000,176412000,36.321577625407045,127.41172221530175,28.71491,28.5932,-0.0,1.0988282,1.1044369,28.623056,2,0,1,0
177412000,177412000,36.321577650793294,127.41172231243903,28.678226,28.56241,-0.0,1.1085688,1.1055622,28.592842,2,0,1,0
178412000,178412000,36.321577624453184,127.41172244686673,28.652716,28.548676,-0.0,1.1002585,1.1034955,28.577707,2,0,1,0
179412000,179412000,36.32157755896651,127.41172256394563,28.644714,28.54852,-0.0,1.1096092,1.1065555,28.562529,2,0,1,0
180412000,180412000,36.32157753076936,127.41172255650376,28.63561,28.551207,-0.0,1.1008027,1.1042888,28.546734,2,0,1,0
181412000,181412000,36.321577551119624,127.41172252651066,28.624157,28.550074,-0.0,1.0948807,1.1038766,28.534695,2,0,1,0
182412000,182412000,36.32157759106094,127.4117224706275,28.612238,28.546446,-0.0,1.1051292,1.1068836,28.517553,2,0,1,0
183412000,183412000,36.321577542712966,127.41172236194458,28.602283,28.548542,-0.0,1.0983489,1.106197,28.512232,2,0,1,0
184412000,184412000,36.32157748528686,127.41172237549578,28.618996,28.572905,-0.0,1.0943103,1.1039644,28.525127,2,0,1,0
185412000,185412000,36.3215775448233,127.41172243554608,28.632154,28.590622,-0.0,1.1049918,1.105332,28.529455,2,0,1,0
186412000,186412000,36.321577528139066,127.41172249277822,28.637487,28.601685,-0.0,1.0983233,1.1048461,28.539059,2,0,1,0
187412000,187412000,36.3215774630966,127.4117224450839,28.63918,28.6067,-0.0,1.1082968,1.1060615,28.536642,2,0,1,0
188412000,188412000,36.3215774842674,127.41172246166775,28.656889,28.62801,-0.0,1.1001278,1.1070483,28.553877,2,0,1,0
189412000,189412000,36.321577499079694,127.41172251032198,28.667124,28.639313,-0.0,1.0936474,1.104342,28.558573,2,0,1,0
190412000,190412000,36.32157741566331,127.41172243468873,28.67867,28.651773,-0.0,1.0905133,1.1023344,28.575981,2,0,1,0
191412000,191412000,36.32157740973991,127.41172238388405,28.679554,28.652348,-0.0,1.1016693,1.1053156,28.578402,2,0,1,0
192412000,192412000,36.32157736530873,127.41172233366319,28.675686,28.64767,-0.0,1.0964463,1.1031793,28.5796,2,0,1,0
193412000,193412000,36.32157733838519,127.4117223512108,28.673475,28.645681,-0.0,1.0915815,1.1030844,28.580887,2,0,1,0
194412000,194412000,36.32157738549037,127.41172233107814,28.677967,28.649502,-0.0,1.0885496,1.1030041,28.584017,2,0,1,0
195412000,195412000,36.32157745058456,127.41172230660125,28.680313,28.650686,-0.0,1.10009,1.1060901,28.579668,2,0,1,0
196412000,196412000,36.321577443272844,127.41172226128275,28.688074,28.657635,-0.0,1.0955595,1.105482,28.587439,2,0,1,0
197412000,197412000,36.32157749211559,127.4117221428336,28.692629,28.66124,-0.0,1.106314,1.1082678,28.593374,2,0,1,0
198412000,198412000,36.32157740659935,127.41172215787597,28.708342,28.674616,-0.0,1.1002463,1.1055944,28.60134,2,0,1,0
199412000,199412000,36.32157734648515,127.4117222501694,28.70786,28.670216,-0.0,1.0955564,1.1049474,28.597439,2,0,1,0
200412000,200412000,36.32157730562908,127.4117223149506,28.70787,28.667774,-0.0,1.0918804,1.1044078,28.595028,2,0,1,0
201412000,201412000,36.321577297078996,127.4117223159588,28.707333,28.665285,-0.0,1.1030377,1.1072189,28.604656,2,0,1,0
202412000,202412000,36.32157729485926,127.41172240737127,28.714088,28.669994,-0.0,1.0983652,1.1045767,28.610334,2,0,1,0
203412000,203412000,36.321577197570754,127.41172244397752,28.702303,28.655455,-0.0,1.0944741,1.1039798,28.596577,2,0,1,0
204412000,204412000,36.32157725908117,127.41172238098669,28.697525,28.65005,-0.0,1.1053587,1.1067991,28.59975,2,0,1,0
205412000,205412000,36.321577296885536,127.41172239376962,28.70084,28.651882,-0.0,1.0985547,1.1043786,28.603909,2,0,1,0
206412000,206412000,36.32157733606748,127.41172239260142,28.69639,28.646063,-0.0,1.0955192,1.1026957,28.596079,2,0,1,0
207412000,207412000,36.32157734175357,127.41172236250685,28.690878,28.641172,-0.0,1.0927054,1.1013904,28.603102,2,0,1,0
208412000,208412000,36.32157734046769,127.41172231395487,28.678673,28.629456,-0.0,1.1039338,1.1035322,28.586018,2,0,1,0
209412000,209412000,36.32157740825959,127.41172226310465,28.645533,28.600132,-0.0,1.0977757,1.1038599,28.556274,2,0,1,0
210412000,210412000,36.32157737806606,127.41172229960073,28.612827,28.572697,-0.0,1.1079859,1.1072669,28.524101,2,0,1,0
211412000,211412000,36.321577412425334,127.41172222794515,28.598211,28.567564,-0.0,1.0999748,1.1047635,28.518661,2,0,1,0
212412000,212412000,36.321577444791046,127.41172234268319,28.588703,28.564632,-0.0,1.1094804,1.1074829,28.503448,2,0,1,0
213412000,213412000,36.32157746375765,127.41172236866298,28.578615,28.56377,-0.0,1.100745,1.1064795,28.49993,2,0,1,0
214412000,214412000,36.32157736767933,127.41172238868185,28.560492,28.554426,-0.0,1.0956794,1.1058217,28.48302,2,0,1,0
215412000,215412000,36.321577256442254,127.41172241554794,28.533792,28.536278,-0.0,1.1059101,1.1067221,28.450274,2,0,1,0
216412000,216412000,36.32157725043777,127.41172251862301,28.508938,28.525959,-0.0,1.0987976,1.1057355,28.442549,2,0,1,0
217412000,217412000,36.32157732281242,127.4117225349092,28.521416,28.547333,-0.0,1.1085571,1.1064512,28.437914,2,0,1,0
218412000,218412000,36.32157736180129,127.41172259753816,28.522308,28.559088,-0.0,1.1002531,1.1056055,28.434435,2,0,1,0
219412000,219412000,36.321577314474986,127.41172264291372,28.520884,28.564043,-0.0,1.1096113,1.1081237,28.427654,2,0,1,0
220412000,220412000,36.32157729300471,127.41172262660322,28.51352,28.566689,-0.0,1.1008048,1.1068863,28.433134,2,0,1,0
221412000,221412000,36.32157723111223,127.41172264528427,28.522158,28.581596,-0.0,1.1099508,1.1075313,28.429062,2,0,1,0
222412000,222412000,36.32157725505672,127.41172263169756,28.529224,28.595901,-0.0,1.1009744,1.105019,28.448814,2,0,1,0
223412000,223412000,36.321577243999336,127.41172258039708,28.544178,28.613947,-0.0,1.1100407,1.1063358,28.448212,2,0,1,0
224412000,224412000,36.32157727493768,127.41172250880977,28.544046,28.61733,-0.0,1.101017,1.1041368,28.448069,2,0,1,0
225412000,225412000,36.32157732971009,127.41172246074487,28.547815,28.622824,-0.0,1.1100609,1.105628,28.449495,2,0,1,0
226412000,226412000,36.32157735696669,127.41172246801736,28.556774,28.633558,-0.0,1.1010264,1.1053078,28.462717,2,0,1,0
227412000,227412000,36.321577381961625,127.41172239385901,28.577833,28.6548,-0.0,1.1100658,1.1067046,28.475342,2,0,1,0
228412000,228412000,36.32157742222654,127.4117224193902,28.605509,28.680645,-0.0,1.1021953,1.1062615,28.499758,2,0,1,0
229412000,229412000,36.321577380283045,127.41172228754029,28.635027,28.704628,-0.0,1.0965676,1.1040016,28.522219,2,0,1,0
230412000,230412000,36.32157730047417,127.41172226196255,28.665869,28.729048,-0.0,1.1066797,1.106817,28.552452,2,0,1,0
231412000,231412000,36.32157735596136,127.4117222334758,28.68831,28.741308,-0.0,1.1003736,1.1061999,28.573473,2,0,1,0
232412000,232412000,36.32157724062617,127.41172220977896,28.71648,28.75488,-0.0,1.0955815,1.1038342,28.597696,2,0,1,0
233412000,233412000,36.32157725805424,127.41172222270365,28.729734,28.756508,-0.0,1.091868,1.1033958,28.600878,2,0,1,0
234412000,234412000,36.32157715025222,127.4117221579081,28.738008,28.755718,-0.0,1.1030012,1.1062223,28.626156,2,0,1,0
235412000,235412000,36.3215772211883,127.41172217769497,28.747461,28.753147,-0.0,1.0983435,1.1056967,28.631466,2,0,1,0
236412000,236412000,36.32157716927632,127.41172221356275,28.76032,28.752657,-0.0,1.0944625,1.1035708,28.640882,2,0,1,0
237412000,237412000,36.32157722975233,127.41172217907445,28.799393,28.781294,-0.0,1.1053615,1.1064496,28.685354,2,0,1,0
238412000,238412000,36.32157721519881,127.41172212380457,28.843714,28.806662,-0.0,1.0985589,1.1041926,28.706074,2,0,1,0
239412000,239412000,36.321577269143056,127.41172220158948,28.865337,28.810959,-0.0,1.0936811,1.1037592,28.720942,2,0,1,0
240412000,240412000,36.32157724398582,127.41172220585901,28.881954,28.813559,-0.0,1.1044248,1.1064773,28.759958,2,0,1,0
241412000,241412000,36.321577288186226,127.41172228873221,28.880608,28.79588,-0.0,1.1001773,1.1058509,28.769785,2,0,1,0
242412000,242412000,36.32157734135905,127.41172223229141,28.881498,28.778938,-0.0,1.0955548,1.1052011,28.751106,2,0,1,0
243412000,243412000,36.32157738773627,127.41172232522655,28.857864,28.744362,-0.0,1.0927054,1.104576,28.740276,2,0,1,0
244412000,244412000,36.32157739140349,127.41172229089662,28.86048,28.738789,-0.0,1.1038994,1.1057755,28.754778,2,0,1,0
245412000,245412000,36.32157737223294,127.41172227917843,28.866919,28.733637,-0.0,1.0977516,1.1037967,28.748304,2,0,1,0
246412000,246412000,36.32157740366896,127.41172241961014,28.872694,28.731802,-0.0,1.1079654,1.1068647,28.762108,2,0,1,0
247412000,247412000,36.32157736232986,127.41172241981762,28.86108,28.710794,-0.0,1.0999647,1.1043454,28.739508,2,0,1,0
248412000,248412000,36.321577383080786,127.41172236034161,28.854397,28.69951,-0.0,1.1094782,1.1072876,28.754269,2,0,1,0
249412000,249412000,36.3215773483792,127.41172230030749,28.847372,28.686037,-0.0,1.1007445,1.1049242,28.73395,2,0,1,0
250412000,250412000,36.32157733589388,127.41172232043532,28.826431,28.662868,-0.0,1.1099306,1.1077763,28.729763,2,0,1,0
251412000,251412000,36.321577369455646,127.41172228461066,28.793606,28.629675,-0.0,1.1009662,1.1067746,28.699171,2,0,1,0
252412000,252412000,36.32157741008317,127.4117223212622,28.759262,28.598175,-0.0,1.1100346,1.1074517,28.670717,2,0,1,0
253412000,253412000,36.32157738844233,127.41172236901343,28.714312,28.562088,-0.0,1.1010134,1.1046953,28.63761,2,0,1,0
254412000,254412000,36.32157732097643,127.41172236392683,28.698065,28.55419,-0.0,1.0958033,1.1026406,28.624287,2,0,1,0
255412000,255412000,36.32157730608548,127.41172246473495,28.67616,28.539684,-0.0,1.1059636,1.1058435,28.58702,2,0,1,0
256412000,256412000,36.32157724747274,127.41172253316574,28.656809,28.533566,-0.0,1.098821,1.10559,28.572975,2,0,1,0
257412000,257412000,36.32157734677104,127.41172267954974,28.639124,28.527552,-0.0,1.0928993,1.1032505,28.55045,2,0,1,0
258412000,258412000,36.321577322413106,127.41172271817291,28.636158,28.534502,-0.0,1.1035092,1.1044959,28.54071,2,0,1,0
259412000,259412000,36.3215772744999,127.41172270175635,28.652191,28.561758,-0.0,1.0974504,1.1041802,28.55541,2,0,1,0
260412000,260412000,36.32157731359291,127.4117226517578,28.686771,28.601143,-0.0,1.1075788,1.1072669,28.576262,2,0,1,0
261412000,261412000,36.32157731941053,127.41172273149027,28.715055,28.632025,-0.0,1.0997396,1.106514,28.587254,2,0,1,0
262412000,262412000,36.32157733281188,127.41172269751803,28.742445,28.658577,-0.0,1.1092975,1.105763,28.620928,2,0,1,0
263412000,263412000,36.321577358902175,127.41172272158478,28.785929,28.697304,-0.0,1.1006494,1.1068532,28.653408,2,0,1,0
264412000,264412000,36.32157744197212,127.41172260635756,28.827536,28.73264,-0.0,1.1098833,1.1078379,28.705046,2,0,1,0
265412000,265412000,36.32157749311725,127.41172261883864,28.86519,28.757137,-0.0,1.1009458,1.1068726,28.73334,2,0,1,0
266412000,266412000,36.32157743468515,127.41172251465129,28.904278,28.784813,-0.0,1.1100445,1.1076208,28.777567,2,0,1,0
267412000,267412000,36.321577428696926,127.41172248593578,28.926922,28.78902,-0.0,1.1010232,1.106516,28.787561,2,0,1,0
268412000,268412000,36.3215773992876,127.41172246249518,28.93186,28.782227,-0.0,1.1100761,1.1056908,28.814249,2,0,1,0
269412000,269412000,36.32157736421658,127.4117224880697,28.95603,28.787516,-0.0,1.1010363,1.1051579,28.817995,2,0,1,0
270412000,270412000,36.32157745913289,127.41172247330822,28.940418,28.761133,-0.0,1.1100769,1.1079781,28.828074,2,0,1,0
271412000,271412000,36.32157742757073,127.41172246612159,28.934145,28.741552,-0.0,1.1010354,1.1053119,28.806381,2,0,1,0
272412000,272412000,36.32157729750237,127.41172246872654,28.921522,28.721613,-0.0,1.1100752,1.1082506,28.817423,2,0,1,0
273412000,273412000,36.321577251015846,127.41172235862543,28.91701,28.70808,-0.0,1.1010342,1.1039361,28.7898,2,0,1,0
274412000,274412000,36.32157727409372,127.41172228999935,28.924381,28.710228,-0.0,1.1100765,1.107046,28.814167,2,0,1,0
275412000,275412000,36.321577406485375,127.41172228977848,28.934553,28.713327,-0.0,1.1022029,1.1048673,28.820093,2,0,1,0
276412000,276412000,36.32157741627953,127.41172229312582,28.95431,28.72315,-0.0,1.0965735,1.1028093,28.827436,2,0,1,0
277412000,277412000,36.32157736744565,127.41172232092603,28.980536,28.741285,-0.0,1.1066884,1.1058441,28.859241,2,0,1,0
278412000,278412000,36.32157740550505,127.41172225420085,28.99795,28.74628,-0.0,1.0992335,1.1052555,28.858574,2,0,1,0
279412000,279412000,36.321577390897744,127.41172233636242,28.986883,28.725788,-0.0,1.0948377,1.1033623,28.844177,2,0,1,0
280412000,280412000,36.32157751265047,127.41172241931685,28.99011,28.722757,-0.0,1.105386,1.105051,28.878256,2,0,1,0
281412000,281412000,36.32157753992407,127.41172243745825,28.994398,28.716776,-0.0,1.0985346,1.1031675,28.852608,2,0,1,0
282412000,282412000,36.32157749722709,127.41172246156756,28.976995,28.694242,-0.0,1.1084313,1.106403,28.869843,2,0,1,0
283412000,283412000,36.321577484554425,127.41172240620725,28.965612,28.676737,-0.0,1.1001962,1.1058288,28.848915,2,0,1,0
284412000,284412000,36.3215773562363,127.41172235577845,28.936563,28.646725,-0.0,1.0953904,1.1053563,28.831804,2,0,1,0
285412000,285412000,36.32157737644929,127.41172240388055,28.926807,28.636961,-0.0,1.1057534,1.1081078,28.8322,2,0,1,0
286412000,286412000,36.32157732404553,127.41172228227067,28.910723,28.622328,-0.0,1.0987229,1.106964,28.80997,2,0,1,0
287412000,287412000,36.32157740149603,127.4117222686699,28.885183,28.599224,-0.0,1.1085272,1.1092072,28.788412,2,0,1,0
288412000,288412000,36.32157745256262,127.41172223977622,28.841679,28.561352,-0.0,1.1014056,1.1077386,28.744802,2,0,1,0
289412000,289412000,36.32157752859787,127.41172209335183,28.80497,28.537195,-0.0,1.0961623,1.1065338,28.716593,2,0,1,0
290412000,290412000,36.321577520486926,127.41172203713423,28.779608,28.521492,-0.0,1.1064519,1.1088783,28.690367,2,0,1,0
291412000,291412000,36.32157746980388,127.41172198914286,28.755737,28.514038,-0.0,1.0991153,1.1057693,28.667555,2,0,1,0
292412000,292412000,36.321577398273895,127.4117222177809,28.724375,28.493841,-0.0,1.1088253,1.1066825,28.634565,2,0,1,0
293412000,293412000,36.32157743811955,127.41172221814463,28.694963,28.484507,-0.0,1.1003985,1.1045583,28.606155,2,0,1,0
294412000,294412000,36.32157743150121,127.4117221731185,28.666445,28.469969,-0.0,1.1097096,1.1076515,28.578337,2,0,1,0
295412000,295412000,36.3215774831805,127.41172210695717,28.649315,28.473886,-0.0,1.1008549,1.1049545,28.570515,2,0,1,0
296412000,296412000,36.32157746716594,127.41172214275576,28.634178,28.47236,-0.0,1.1099788,1.1059214,28.544096,2,0,1,0
297412000,297412000,36.321577609387504,127.41172214476704,28.630608,28.490047,-0.0,1.1009879,1.1054326,28.55038,2,0,1,0
298412000,298412000,36.321577622267974,127.41172217565583,28.62384,28.495295,-0.0,1.1100469,1.106591,28.528534,2,0,1,0
299412000,299412000,36.32157760437458,127.41172232827083,28.624685,28.513103,-0.0,1.10102,1.1058543,28.53239,2,0,1,0
300412000,300412000,36.32157761701602,127.41172241496575,28.63569,28.533733,-0.0,1.1100652,1.1068482,28.535,2,0,1,0
301412000,301412000,36.32157763927839,127.41172259464673,28.648697,28.558004,-0.0,1.10103,1.1059375,28.548655,2,0,1,0
302412000,302412000,36.3215776148819,127.41172264694035,28.646402,28.562868,-0.0,1.1100686,1.107043,28.545177,2,0,1,0
303412000,303412000,36.32157752920809,127.41172273337813,28.653273,28.57819,-0.0,1.1010306,1.1032662,28.555443,2,0,1,0
304412000,304412000,36.32157745629346,127.41172271103366,28.656498,28.587584,-0.0,1.0941094,1.1017156,28.55702,2,0,1,0
305412000,305412000,36.32157743214228,127.41172254827082,28.661898,28.597565,-0.0,1.1042824,1.1035846,28.56398,2,0,1,0
306412000,306412000,36.321577333524445,127.41172247834551,28.657448,28.59903,-0.0,1.0978444,1.1008826,28.566027,2,0,1,0
307412000,307412000,36.32157736309238,127.41172246214404,28.663359,28.608492,-0.0,1.1077806,1.1046304,28.562546,2,0,1,0
308412000,308412000,36.32157740361229,127.41172239458494,28.658636,28.608374,-0.0,1.0998337,1.1044793,28.566113,2,0,1,0
309412000,309412000,36.32157743494131,127.4117224174215,28.656727,28.60908,-0.0,1.1093223,1.1057955,28.558395,2,0,1,0
310412000,310412000,36.32157743721387,127.41172243219418,28.647625,28.603352,-0.0,1.102914,1.1054777,28.551434,2,0,1,0
311412000,311412000,36.3215773773886,127.41172237912387,28.638311,28.599403,-0.0,1.0970602,1.1049927,28.549498,2,0,1,0
312412000,312412000,36.32157740098863,127.41172249807924,28.634323,28.598917,-0.0,1.1071783,1.1060243,28.535683,2,0,1,0
313412000,313412000,36.32157746609855,127.41172253625007,28.618023,28.589565,-0.0,1.0994573,1.1038303,28.533438,2,0,1,0
314412000,314412000,36.32157751207898,127.41172261809335,28.615868,28.59211,-0.0,1.1090509,1.1053935,28.522404,2,0,1,0
315412000,315412000,36.32157746372834,127.41172264103014,28.60823,28.59112,-0.0,1.1005135,1.1050757,28.51529,2,0,1,0
316412000,316412000,36.321577403575866,127.41172266214728,28.587444,28.574778,-0.0,1.1097742,1.1063153,28.49363,2,0,1,0
317412000,317412000,36.3215773751472,127.4117226553452,28.575293,28.571768,-0.0,1.1008865,1.1037761,28.494562,2,0,1,0
318412000,318412000,36.32157741589927,127.41172271234748,28.568956,28.571371,-0.0,1.1099943,1.1069332,28.472795,2,0,1,0
319412000,319412000,36.32157740970314,127.41172266206603,28.559029,28.569998,-0.0,1.1009952,1.1046137,28.471434,2,0,1,0
320412000,320412000,36.32157743266878,127.41172257099575,28.559135,28.576101,-0.0,1.1101028,1.1074648,28.459684,2,0,1,0
321412000,321412000,36.32157752988599,127.41172238584218,28.55286,28.578182,-0.0,1.101046,1.1047308,28.455507,2,0,1,0
322412000,322412000,36.321577520197565,127.411722246731,28.541636,28.57287,-0.0,1.1119714,1.1077131,28.44916,2,0,1,0
323412000,323412000,36.32157744036185,127.41172241294501,28.556473,28.59543,-0.0,1.1019553,1.10684,28.442043,2,0,1,0
324412000,324412000,36.32157743312517,127.41172309184026,28.966265,29.007008,-0.0,1.1128054,1.1076106,28.442043,2,0,1,0
325412000,325412000,36.321577134734,127.41172256437416,29.68621,29.72702,-0.0,1.1025628,1.1066588,nan,2,0,0,0
326412000,326412000,36.32157698302532,127.41172281171099,30.544222,30.583588,-0.0,1.1124167,1.1075519,nan,2,0,0,0
327412000,327412000,36.321576955861545,127.41172290821532,31.488255,31.522799,-0.0,1.1024357,1.1050792,nan,2,0,0,0
328412000,328412000,36.32157694373651,127.41172302290732,32.500175,32.53025,-0.0,1.1116136,1.1079957,nan,2,0,0,0
329412000,329412000,36.32157717614862,127.41172307327355,33.494904,33.518917,-0.0,1.1019546,1.1051893,nan,2,0,0,0
330412000,330412000,36.32157743743925,127.41172309711689,34.50906,34.527466,-0.0,1.1116177,1.1079051,nan,2,0,0,0
331412000,331412000,36.32157772320896,127.41172317341041,35.517586,35.527615,-0.0,1.1043983,1.1054538,nan,2,0,0,0
332412000,332412000,36.32157770460502,127.41172297393791,36.518425,36.51781,-0.0,1.0980309,1.103514,nan,2,0,0,0
333412000,333412000,36.32157797567359,127.41172292135975,37.53131,37.52215,-0.0,1.1081413,1.1050284,nan,2,0,0,0
334412000,334412000,36.32157778297899,127.41172291377764,38.523613,38.50113,-0.0,1.1000586,1.1034071,nan,2,0,0,0
335412000,335412000,36.32157768221598,127.41172290026832,40.15328,40.114147,-0.0,1.1094605,1.1066444,nan,2,0,0,0
336412000,336412000,36.321577721695164,127.41172290078326,42.927002,42.850204,-0.0,1.1007653,1.1044104,nan,2,0,0,0
337412000,337412000,36.32157773643992,127.4117228477552,45.805298,45.704113,-0.0,1.1100194,1.1073895,nan,2,0,0,0
338412000,338412000,36.321577540585,127.4117227303286,48.723213,48.59059,-0.0,1.1010293,1.1048834,nan,2,0,0,0
339412000,339412000,36.32157768920855,127.41172268373282,51.65901,51.5014,-0.0,1.0950136,1.1027546,nan,2,0,0,0
340412000,340412000,36.321577582865004,127.41172260490153,54.61537,54.43863,-0.0,1.1052843,1.1043783,nan,2,0,0,0
341412000,341412000,36.32157752371698,127.41172259624653,57.548233,57.34347,-0.0,1.0984427,1.1027877,nan,2,0,0,0
342412000,342412000,36.32157753239604,127.4117229350615,60.47561,60.25253,-0.0,1.1083983,1.1063164,nan,2,0,0,0
343412000,343412000,36.321577277039054,127.4117229340194,63.4653,63.213932,-0.0,1.1001838,1.105858,nan,2,0,0,0
344412000,344412000,36.321577327546656,127.41172255147994,66.42075,66.14757,-0.0,1.0954272,1.102176,nan,2,0,0,0
345412000,345412000,36.32157731197175,127.41172250123125,69.35379,69.063156,-0.0,1.1059412,1.1041256,nan,2,0,0,0
346412000,346412000,36.32157724527649,127.41172246360198,72.27555,71.959755,-0.0,1.0988511,1.1043496,nan,2,0,0,0
347412000,347412000,36.321577133327146,127.41172247038358,75.142525,74.8094,-0.0,1.108744,1.1060348,nan,2,0,0,0
348412000,348412000,36.321577053674574,127.41172252518383,77.99851,77.640396,-0.0,1.1003621,1.1042145,nan,2,0,0,0
349412000,349412000,36.321577039634455,127.41172278122782,80.86899,80.49447,-0.0,1.1097875,1.1057127,nan,2,0,0,0
350412000,350412000,36.32157706722996,127.41172296862783,83.750046,83.35226,-0.0,1.1009016,1.1035631,nan,2,0,0,0
351412000,351412000,36.321577121779384,127.41172307666878,86.64804,86.235596,-0.0,1.110084,1.106807,nan,2,0,0,0
352412000,352412000,36.32157730572648,127.41172308174998,89.62897,89.19776,-0.0,1.1010442,1.1061217,nan,2,0,0,0
353412000,353412000,36.321577385951876,127.41172274568169,92.48631,92.04452,-0.0,1.1101128,1.1073364,nan,2,0,0,0
354412000,354412000,36.321577538484334,127.41172272254079,95.0576,94.61025,-0.0,1.1010767,1.1050254,nan,2,0,0,0
355412000,355412000,36.32157754153783,127.41172228032819,96.5612,96.12012,-0.0,1.1098913,1.107991,nan,2,0,0,0
356412000,356412000,36.32157754084272,127.41172221447628,97.39993,96.97435,-0.0,1.1008639,1.1053416,nan,2,0,0,0
357412000,357412000,36.321577529698125,127.41172219317102,97.872665,97.46035,-0.0,1.0948117,1.1032774,nan,2,0,0,0
358412000,358412000,36.32157766532641,127.41172232325599,97.89959,97.50031,-0.0,1.1048712,1.1063733,nan,2,0,0,0
359412000,359412000,36.321577860425215,127.41172270377653,97.898186,97.51659,-0.0,1.0981205,1.1058837,nan,2,0,0,0
360412000,360412000,36.32158469629249,127.41172219241936,97.83197,97.46182,-0.0,1.108331,1.1052767,nan,2,0,0,0
361412000,361412000,36.321632962189625,127.4117149922618,97.8253,97.46845,-0.0,1.1001655,1.105078,nan,2,0,0,0
362412000,362412000,36.32173679238899,127.41170258900733,96.95768,96.618126,-0.0,1.110604,1.1068482,nan,2,0,0,0
363412000,363412000,36.321856659071386,127.41168269331898,96.195984,95.87598,-0.0,1.1014109,1.1048063,nan,2,0,0,0
364412000,364412000,36.321984865767455,127.41165294398228,96.51333,96.197105,-0.0,1.1111871,1.1063868,nan,2,0,0,0
365412000,365412000,36.322111187558185,127.41162125682833,97.50643,97.19108,-0.0,1.1017547,1.1060023,nan,2,0,0,0
366412000,366412000,36.32223596054388,127.41158948559118,98.05437,97.744484,-0.0,1.1107454,1.1071517,nan,2,0,0,0
367412000,367412000,36.32236099442107,127.41155754387947,98.24717,97.95244,-0.0,1.1013904,1.1045227,nan,2,0,0,0
368412000,368412000,36.32248683407868,127.41152576773072,98.35232,98.068756,-0.0,1.1101483,1.1075215,nan,2,0,0,0
369412000,369412000,36.32261301528207,127.41149383782877,98.46621,98.198845,-0.0,1.1010312,1.104869,nan,2,0,0,0
370412000,370412000,36.322739092116976,127.41146193464917,98.55541,98.29829,-0.0,1.1098863,1.1061119,nan,2,0,0,0
371412000,371412000,36.322865320372124,127.41143014922731,98.57435,98.32972,-0.0,1.1020468,1.104012,nan,2,0,0,0
372412000,372412000,36.322991367755456,127.41139833745262,98.575005,98.34773,-0.0,1.0963514,1.103726,nan,2,0,0,0
373412000,373412000,36.323117683680174,127.41136629738662,98.575676,98.36052,-0.0,1.1063851,1.1067442,nan,2,0,0,0
374412000,374412000,36.323244288456976,127.41133450390397,98.57829,98.38312,-0.0,1.0990516,1.1045132,nan,2,0,0,0
375412000,375412000,36.32337091888704,127.41130285319616,98.611305,98.42707,-0.0,1.1087842,1.1074319,nan,2,0,0,0
376412000,376412000,36.323497571127426,127.4112711408141,98.60325,98.4295,-0.0,1.1196324,1.1068379,nan,2,0,0,0
377412000,377412000,36.32362427399746,127.41123987721184,98.60763,98.447395,-0.0,1.1095651,1.1064665,nan,2,0,0,0
378412000,378412000,36.32375127024799,127.41120869074705,98.612854,98.46308,-0.0,1.1019026,1.1044557,nan,2,0,0,0
379412000,379412000,36.32387825290444,127.41117736191894,98.62215,98.48214,-0.0,1.0963765,1.1013845,nan,2,0,0,0
380412000,380412000,36.324005262860105,127.4111459284104,98.62845,98.493805,-0.0,1.1065063,1.1033472,nan,2,0,0,0
381412000,381412000,36.324132347319726,127.41111423612091,98.63215,98.50268,-0.0,1.0990709,1.1021941,nan,2,0,0,0
382412000,382412000,36.32425942243864,127.41108235479707,98.62499,98.49738,-0.0,1.108775,1.10562,nan,2,0,0,0
383412000,383412000,36.32438640039176,127.41105018944087,98.59598,98.47197,-0.0,1.1003087,1.1051811,nan,2,0,0,0
384412000,384412000,36.324513697796824,127.41101791701362,98.600075,98.47719,-0.0,1.1096369,1.1063604,nan,2,0,0,0
385412000,385412000,36.32464086180847,127.41098540743373,98.59995,98.47869,-0.0,1.1008042,1.1039069,nan,2,0,0,0
386412000,386412000,36.32476790450563,127.410953165371,98.576385,98.45553,-0.0,1.1098585,1.1068858,nan,2,0,0,0
387412000,387412000,36.324895090733854,127.41092118933386,98.5597,98.43893,-0.0,1.1202554,1.1084458,nan,2,0,0,0
388412000,388412000,36.32502303199809,127.41089345282603,98.55416,98.43257,-0.0,1.1099075,1.1061476,nan,2,0,0,0
389412000,389412000,36.32515224319537,127.41087329849323,98.539116,98.41559,-0.0,1.1009276,1.1040366,nan,2,0,0,0
390412000,390412000,36.32528223470976,127.41086088707968,98.68827,98.56033,-0.0,1.1099991,1.1058581,nan,2,0,0,0
391412000,391412000,36.32541206323772,127.41085382990107,99.24173,99.103806,-0.0,1.1009347,1.1040634,nan,2,0,0,0
392412000,392412000,36.32554118754777,127.41085009976997,100.07236,99.92611,-0.0,1.1100719,1.1058102,nan,2,0,0,0
393412000,393412000,36.32566993284629,127.41084714393412,101.01504,100.857185,-0.0,1.101037,1.104105,nan,2,0,0,0
394412000,394412000,36.32579852060956,127.41084416185997,102.011536,101.846695,-0.0,1.1100125,1.1073118,nan,2,0,0,0
395412000,395412000,36.32592677985288,127.41084092897341,103.07108,102.897644,-0.0,1.100942,1.1048129,nan,2,0,0,0
396412000,396412000,36.326055108530106,127.41083740668961,104.14553,103.96756,-0.0,1.1098099,1.1063031,nan,2,0,0,0
397412000,397412000,36.32618371824499,127.410833850581,105.25453,105.06962,-0.0,1.1008682,1.104374,nan,2,0,0,0
398412000,398412000,36.32631248577242,127.4108307301571,106.35625,106.16429,-0.0,1.0956973,1.1027541,nan,2,0,0,0
399412000,399412000,36.32644125659381,127.4108276921616,107.44642,107.249115,-0.0,1.1058209,1.1044794,nan,2,0,0,0
400412000,400412000,36.32656992312208,127.4108244415024,108.547386,108.34339,-0.0,1.098721,1.1027724,nan,2,0,0,0
401412000,401412000,36.3266983294717,127.41082134276856,109.6506,109.44149,-0.0,1.108297,1.1046076,nan,2,0,0,0
402412000,402412000,36.32682717164898,127.41081814965725,110.75105,110.535645,-0.0,1.1000876,1.1016799,nan,2,0,0,0
403412000,403412000,36.32695563398491,127.41081484429294,111.8567,111.63753,-0.0,1.1093637,1.1055771,nan,2,0,0,0
404412000,404412000,36.32708428294745,127.41081152784413,112.95562,112.73295,-0.0,1.1005473,1.1038319,nan,2,0,0,0
405412000,405412000,36.32721321569263,127.41080823812281,114.05647,113.8335,-0.0,1.112427,1.1074544,nan,2,0,0,0
406412000,406412000,36.327342039207736,127.41080515679054,115.15293,114.928825,-0.0,1.1056776,1.1054916,nan,2,0,0,0
407412000,407412000,36.327471124548794,127.41080202255749,116.27685,116.05311,-0.0,1.1171837,1.1070398,nan,2,0,0,0
408412000,408412000,36.327599630799504,127.41079911332751,117.3755,117.15262,-0.0,1.1081935,1.1067033,nan,2,0,0,0
409412000,409412000,36.32772864972887,127.41079671200826,118.46275,118.24176,-0.0,1.1189333,1.1078833,nan,2,0,0,0
410412000,410412000,36.32785759181477,127.4107946889873,119.58274,119.36145,-0.0,1.109095,1.1056582,nan,2,0,0,0
411412000,411412000,36.32798647077405,127.41079230162161,120.698586,120.47731,-0.0,1.1195165,1.1072437,nan,2,0,0,0
412412000,412412000,36.32811542054185,127.41078993570896,121.7952,121.57382,-0.0,1.1093769,1.1052163,nan,2,0,0,0
413412000,413412000,36.32824462225322,127.41078724206685,122.91632,122.69313,-0.0,1.1196629,1.1069309,nan,2,0,0,0
414412000,414412000,36.32837375644774,127.4107843167648,124.00733,123.77851,-0.0,1.1094428,1.1065885,nan,2,0,0,0
415412000,415412000,36.32850309318524,127.41078114668282,125.11091,124.87791,-0.0,1.1196941,1.1079118,nan,2,0,0,0
416412000,416412000,36.328632500180895,127.41077781639153,126.20536,125.96468,-0.0,1.1094555,1.1071646,nan,2,0,0,0
417412000,417412000,36.32876193681716,127.41077448293763,127.30691,127.06081,-0.0,1.1196941,1.1082456,nan,2,0,0,0
418412000,418412000,36.328891259281164,127.41077108883538,128.39204,128.13957,-0.0,1.1094537,1.105783,nan,2,0,0,0
419412000,419412000,36.32902184092853,127.41076788190307,130.01653,129.76042,-0.0,1.1198845,1.1088248,nan,2,0,0,0
420412000,420412000,36.3291503784739,127.41076598144616,133.1669,132.88966,-0.0,1.1125201,1.1064271,nan,2,0,0,0
421412000,421412000,36.329277115621316,127.41076430473905,136.42342,136.12076,-0.0,1.1056416,1.106029,nan,2,0,0,0
422412000,422412000,36.329403974621094,127.41076213516227,139.4691,139.15472,-0.0,1.1169702,1.1074919,nan,2,0,0,0
423412000,423412000,36.329531093800206,127.41075992307667,142.44646,142.11739,-0.0,1.1080487,1.1055268,nan,2,0,0,0
424412000,424412000,36.32965836941427,127.41075743997891,145.41937,145.08276,-0.0,1.1187266,1.1069019,nan,2,0,0,0
425412000,425412000,36.32978457137218,127.41075457235445,147.57596,147.23763,-0.0,1.1088662,1.1064293,nan,2,0,0,0
426412000,426412000,36.32991276693886,127.41075114710239,147.9114,147.58824,-0.0,1.1187,1.1076413,nan,2,0,0,0
427412000,427412000,36.33004334693413,127.41074734102341,147.9721,147.67621,-0.0,1.1088486,1.1053389,nan,2,0,0,0
428412000,428412000,36.33017439349715,127.41074364078973,148.1661,147.8862,-0.0,1.1191097,1.1084895,nan,2,0,0,0
429412000,429412000,36.330305250690714,127.41074018250889,148.33945,148.08444,-0.0,1.109089,1.106051,nan,2,0,0,0
430412000,430412000,36.33043611062651,127.41073645908732,148.42854,148.19,-0.0,1.119465,1.1090437,nan,2,0,0,0
431412000,431412000,36.33056704027,127.41073239608549,148.49167,148.27797,-0.0,1.10936,1.1064142,nan,2,0,0,0
432412000,432412000,36.33069793861846,127.41072743300826,148.53787,148.34009,-0.0,1.119706,1.1060891,nan,2,0,0,0
433412000,433412000,36.33082743875879,127.41070418862314,148.44507,148.27216,-0.0,1.1093677,1.1042902,nan,2,0,0,0
434412000,434412000,36.330943820771594,127.41062977843148,148.23015,148.07825,-0.0,1.1015662,1.1044593,nan,2,0,0,0
435412000,435412000,36.331029609728425,127.41050635252114,148.24414,148.10423,-0.0,1.1136897,1.1064559,nan,2,0,0,0
436412000,436412000,36.33110465862995,127.41037353995341,148.49342,148.3686,-0.0,1.1061832,1.1063054,nan,2,0,0,0
437412000,437412000,36.331196224081104,127.41025906663742,148.53601,148.42357,-0.0,1.117122,1.1075842,nan,2,0,0,0
438412000,438412000,36.331310556189365,127.41018252453297,148.5244,148.43028,-0.0,1.1080451,1.1066282,nan,2,0,0,0
439412000,439412000,36.331438881536165,127.41015643902244,148.5195,148.43506,-0.0,1.1190121,1.1074967,nan,2,0,0,0
440412000,440412000,36.33156695617236,127.41018345241332,148.56458,148.48969,-0.0,1.1090969,1.1068369,nan,2,0,0,0
441412000,441412000,36.33168209267333,127.41025863983997,148.59468,148.52208,-0.0,1.1196978,1.1082741,nan,2,0,0,0
442412000,442412000,36.331773924277265,127.41037293558519,148.62662,148.55193,-0.0,1.1093179,1.1062617,nan,2,0,0,0
443412000,443412000,36.331835152557176,127.4105153771549,148.64278,148.56464,-0.0,1.1194881,1.1100129,nan,2,0,0,0
444412000,444412000,36.33186103039713,127.41067349802023,148.64441,148.55875,-0.0,1.1091689,1.1073605,nan,2,0,0,0
445412000,445412000,36.33184967380554,127.41083411898256,148.6412,148.55005,-0.0,1.1193663,1.1107402,nan,2,0,0,0
446412000,446412000,36.33180220464902,127.41098415745569,148.63449,148.53398,-0.0,1.1091412,1.1078479,nan,2,0,0,0
447412000,447412000,36.3317221600312,127.41111115173724,148.61763,148.51181,-0.0,1.1194928,1.1076009,nan,2,0,0,0
448412000,448412000,36.33161603898281,127.41120428740858,148.60872,148.4939,-0.0,1.109218,1.1073544,nan,2,0,0,0
449412000,449412000,36.33149276670282,127.41125527176223,148.6147,148.49414,-0.0,1.119571,1.1089988,nan,2,0,0,0
450412000,450412000,36.331363001816875,127.4112604891215,148.60812,148.47864,-0.0,1.1092261,1.1080357,nan,2,0,0,0
451412000,451412000,36.331237342534735,127.41121929321093,148.60011,148.46515,-0.0,1.1194513,1.1091068,nan,2,0,0,0
452412000,452412000,36.3311265506069,127.41113552499576,148.61229,148.47,-0.0,1.1091212,1.108182,nan,2,0,0,0
453412000,453412000,36.33103959065612,127.41101573389717,148.58627,148.43845,-0.0,1.119212,1.109452,nan,2,0,0,0
454412000,454412000,36.33098367961611,127.41087020889442,148.54819,148.39505,-0.0,1.1089565,1.1083447,nan,2,0,0,0
455412000,455412000,36.330963878370454,127.41071045595498,148.53523,148.37955,-0.0,1.1189579,1.1096091,nan,2,0,0,0
456412000,456412000,36.33098165696443,127.4105508950986,148.54025,148.3835,-0.0,1.108792,1.106879,nan,2,0,0,0
457412000,457412000,36.3310355730204,127.41040394095045,148.53601,148.37889,-0.0,1.1187112,1.107952,nan,2,0,0,0
458412000,458412000,36.33112090508186,127.41028247746175,148.56265,148.4035,-0.0,1.1086334,1.1072086,nan,2,0,0,0
459412000,459412000,36.33123074376897,127.41019634992718,148.55675,148.3961,-0.0,1.1184652,1.1103534,nan,2,0,0,0
460412000,460412000,36.33135556689106,127.41015251813681,148.53679,148.37721,-0.0,1.1084569,1.1076024,nan,2,0,0,0
461412000,461412000,36.33148555468338,127.41015495375028,148.51753,148.3601,-0.0,1.1181747,1.1105199,nan,2,0,0,0
462412000,462412000,36.33160955344218,127.41020324380361,148.53651,148.38313,-0.0,1.1082493,1.1076877,nan,2,0,0,0
463412000,463412000,36.33171709879646,127.41029391155553,148.56189,148.41113,-0.0,1.1178466,1.1072648,nan,2,0,0,0
464412000,464412000,36.331798932773644,127.41041867927999,148.56107,148.4137,-0.0,1.1080161,1.1067479,nan,2,0,0,0
465412000,465412000,36.33184887453188,127.41056761760409,148.55249,148.40775,-0.0,1.1175222,1.1099374,nan,2,0,0,0
466412000,466412000,36.331862556808375,127.41072787302869,148.54866,148.40863,-0.0,1.1078032,1.1070974,nan,2,0,0,0
467412000,467412000,36.33183897278094,127.4108864230409,148.58527,148.44743,-0.0,1.1173147,1.1101034,nan,2,0,0,0
468412000,468412000,36.331780111602136,127.41102990753089,148.60358,148.4666,-0.0,1.1076996,1.1058719,nan,2,0,0,0
469412000,469412000,36.33169058514768,127.41114657484106,148.60782,148.47159,-0.0,1.1173269,1.1091981,nan,2,0,0,0
470412000,470412000,36.331578049545314,127.41122654209555,148.60242,148.46564,-0.0,1.1077709,1.1082761,nan,2,0,0,0
471412000,471412000,36.331451651751934,127.41126318736082,148.59332,148.45578,-0.0,1.1175345,1.1110314,nan,2,0,0,0
472412000,472412000,36.33132190766627,127.41125340689705,148.59683,148.45758,-0.0,1.1079535,1.1077331,nan,2,0,0,0
473412000,473412000,36.33119974592659,127.41119807976716,148.602,148.46013,-0.0,1.1179453,1.1086749,nan,2,0,0,0
474412000,474412000,36.33109561979133,127.41110205028957,148.59988,148.4528,-0.0,1.1082151,1.1078973,nan,2,0,0,0
475412000,475412000,36.33101775505874,127.41097253821371,148.59453,148.44385,-0.0,1.1182256,1.1093855,nan,2,0,0,0
476412000,476412000,36.33097304262874,127.41082122400807,148.60538,148.44647,-0.0,1.1083653,1.1052629,nan,2,0,0,0
477412000,477412000,36.33096507454324,127.41066017228584,148.59038,148.42407,-0.0,1.1182979,1.1087431,nan,2,0,0,0
478412000,478412000,36.33099423732941,127.41050300669936,148.56851,148.38979,-0.0,1.1083819,1.1062292,nan,2,0,0,0
479412000,479412000,36.33105852545873,127.41036250011952,148.54616,148.35942,-0.0,1.1182171,1.1092426,nan,2,0,0,0
480412000,480412000,36.331152427063316,127.41025092597164,148.53137,148.33331,-0.0,1.1083069,1.1065925,nan,2,0,0,0
481412000,481412000,36.33126827197895,127.41017730977315,148.5254,148.32172,-0.0,1.1180183,1.1079036,nan,2,0,0,0
482412000,482412000,36.33139605716052,127.41014785174097,148.52036,148.30887,-0.0,1.1081551,1.10559,nan,2,0,0,0
483412000,483412000,36.331525269000714,127.41016530582074,148.51324,148.29814,-0.0,1.1177322,1.1073581,nan,2,0,0,0
484412000,484412000,36.33164502381845,127.4102276709679,148.50429,148.28511,-0.0,1.1079389,1.1070167,nan,2,0,0,0
485412000,485412000,36.331745484063546,127.41033042630386,148.49286,148.2736,-0.0,1.1174634,1.1087192,nan,2,0,0,0
486412000,486412000,36.33181796699716,127.41046420566194,148.49223,148.27637,-0.0,1.1077355,1.10631,nan,2,0,0,0
487412000,487412000,36.33185651024034,127.41061830491417,148.49947,148.28682,-0.0,1.1171023,1.1081158,nan,2,0,0,0
488412000,488412000,36.33185773566735,127.41077958289388,148.51501,148.30823,-0.0,1.1075063,1.1062878,nan,2,0,0,0
489412000,489412000,36.33182167060649,127.4109345327055,148.53522,148.33177,-0.0,1.1168973,1.1080359,nan,2,0,0,0
490412000,490412000,36.33175158756826,127.41107017934203,148.54137,148.34273,-0.0,1.1074115,1.1059649,nan,2,0,0,0
491412000,491412000,36.331653097447784,127.41117540646222,148.52713,148.33179,-0.0,1.1169645,1.10764,nan,2,0,0,0
492412000,492412000,36.331534399791366,127.41124092005909,148.4902,148.30019,-0.0,1.107529,1.1071134,nan,2,0,0,0
493412000,493412000,36.33140538257014,127.41126127630409,148.45592,148.27164,-0.0,1.117321,1.1083667,nan,2,0,0,0
494412000,494412000,36.33127699640362,127.41123517557683,148.46901,148.29416,-0.0,1.1078134,1.1093174,nan,2,0,0,0
495412000,495412000,36.33115983508582,127.41116455196601,148.48846,148.32016,-0.0,1.1177579,1.1101872,nan,2,0,0,0
496412000,496412000,36.33106399288623,127.41105547976834,148.48967,148.33147,-0.0,1.1080811,1.1069973,nan,2,0,0,0
497412000,497412000,36.330997386025544,127.41091622894551,148.49889,148.34718,-0.0,1.1181066,1.1101614,nan,2,0,0,0
498412000,498412000,36.33096575163,127.4107596741213,148.52109,148.37706,-0.0,1.1082672,1.1073017,nan,2,0,0,0
499412000,499412000,36.33097157188804,127.41059853015395,148.53194,148.39436,-0.0,1.1181252,1.1084015,nan,2,0,0,0
500412000,500412000,36.33101419372976,127.41044612244586,148.53947,148.4096,-0.0,1.108253,1.1075526,nan,2,0,0,0
501412000,501412000,36.331090456760926,127.41031538011421,148.54877,148.42236,-0.0,1.1180054,1.1089027,nan,2,0,0,0
502412000,502412000,36.33119360969178,127.41021729784495,148.56999,148.44756,-0.0,1.1081548,1.1081274,nan,2,0,0,0
503412000,503412000,36.33131500639678,127.4101598598678,148.5788,148.45834,-0.0,1.1177855,1.1093414,nan,2,0,0,0
504412000,504412000,36.33144446814787,127.41014754125686,148.5905,148.47139,-0.0,1.1079872,1.1083125,nan,2,0,0,0
505412000,505412000,36.33157131882388,127.41018155474852,148.59898,148.4805,-0.0,1.1014274,1.1055638,nan,2,0,0,0
506412000,506412000,36.33168520496001,127.41025949079734,148.58295,148.46439,-0.0,1.1121773,1.1086844,nan,2,0,0,0
507412000,507412000,36.33177616162151,127.41037456246032,148.58543,148.46666,-0.0,1.1048691,1.1062605,nan,2,0,0,0
508412000,508412000,36.33183681794619,127.41051729668801,148.58595,148.46736,-0.0,1.1150885,1.1077654,nan,2,0,0,0
509412000,509412000,36.33186216334602,127.41067515166405,148.58914,148.47112,-0.0,1.1064545,1.1057774,nan,2,0,0,0
510412000,510412000,36.33185032591223,127.41083556686345,148.58994,148.47243,-0.0,1.1161753,1.1074549,nan,2,0,0,0
511412000,511412000,36.331802016930304,127.41098511536278,148.58125,148.46411,-0.0,1.1070064,1.1071665,nan,2,0,0,0
512412000,512412000,36.331721094064555,127.41111148867716,148.56451,148.44746,-0.0,1.116586,1.1084918,nan,2,0,0,0
513412000,513412000,36.3316144120335,127.41120365333141,148.58928,148.47289,-0.0,1.1072787,1.1078537,nan,2,0,0,0
514412000,514412000,36.331491225381605,127.41125439201305,148.58757,148.47197,-0.0,1.116994,1.109332,nan,2,0,0,0
515412000,515412000,36.331361240933624,127.41125931541289,148.58408,148.46909,-0.0,1.1075945,1.1066356,nan,2,0,0,0
516412000,516412000,36.331235606899,127.41121774037414,148.60461,148.48732,-0.0,1.1174951,1.108044,nan,2,0,0,0
