timestamp,timestamp_sample,ref_timestamp,ref_lat,ref_lon,x,y,z,delta_xy[0],delta_xy[1],delta_z,vx,vy,vz,z_deriv,delta_vxy[0],delta_vxy[1],delta_vz,ax,ay,az,heading,delta_heading,ref_alt,dist_bottom,eph,epv,evh,evv,vxy_max,vz_max,hagl_min,hagl_max,xy_valid,z_valid,v_xy_valid,v_z_valid,xy_reset_counter,z_reset_counter,vxy_reset_counter,vz_reset_counter,heading_reset_counter,xy_global,z_global,dist_bottom_valid,dist_bottom_sensor_bitfield
688000,688000,0,nan,nan,-9.08E-07,-8.43E-09,3.88E-07,0,0,0,-0.000258766,1.62E-05,0.000193412,0.00019266,-0.000232582,-2.44E-05,0,-0.00925835,0.01032132,0.050283033,1.5599633,1.5599612,nan,0.1,0.70622146,3.5000029,7.071068,0.45001808,inf,inf,inf,inf,0,1,0,1,1,0,1,0,1,0,0,1,2
1000000,1000000,804000,36.3215774,127.4117224,0.000423478,-0.000435255,0.033328578,0,0,0,0.00188843,-0.003804698,0.010421106,0.038468298,-0.000232582,-2.44E-05,0,0.031043503,0.04006425,-0.023956409,1.5599047,1.5599612,28.71612,0.10480337,0.93646055,1.5665587,4.5320535,0.45344916,inf,inf,inf,inf,0,1,0,1,1,0,1,0,1,1,1,1,2
1500000,1500000,804000,36.3215774,127.4117224,0.000650008,-0.000953858,0.03746528,0,0,0,0.00420489,-0.000914773,0.022719575,0.03454314,-0.000232582,-2.44E-05,0,0.032478996,0.02180188,-0.032347623,1.560431,1.5599612,28.71612,0.1,0.29665792,1.0259138,1.0494,0.47194183,inf,inf,inf,inf,0,1,0,1,1,0,1,0,1,1,1,1,2
2000000,2000000,804000,36.3215774,127.4117224,0.002369086,-0.00064229,0.049021576,0,0,0,0.005733732,-0.000555052,0.031282593,0.035209328,-0.000232582,-2.44E-05,0,0.009126551,-0.017430993,0.004647299,1.5605791,1.5599612,28.71612,0.1,0.15313445,0.85940415,0.6613425,0.50407183,inf,inf,inf,inf,0,1,0,1,1,0,1,0,1,1,1,1,2
2500000,2500000,804000,36.3215774,127.4117224,-0.000342213,0.000176778,0.058339447,0,0,0,-0.003062748,0.001726107,0.03415228,0.030267758,-0.000232582,-2.44E-05,0,0.021403832,0.026382808,-0.03524031,1.5610796,1.5599612,28.71612,0.1,0.19305027,0.81112224,0.6557228,0.53892505,inf,inf,inf,inf,0,1,0,1,1,0,1,0,1,1,1,1,2
3000000,3000000,804000,36.3215774,127.4117224,-0.000606554,0.001457735,0.06567369,0,0,0,0.001455143,0.00362092,0.03333114,0.023048462,-0.000232582,-2.44E-05,0,-0.014185172,0.037350085,0.020327976,1.561199,1.5599612,28.71612,0.1,0.12346252,0.82057995,0.41607812,0.56669223,inf,inf,inf,inf,0,1,0,1,1,0,1,0,1,1,1,1,2
3500000,3500000,804000,36.3215774,127.4117224,0.00036027,-0.000507532,0.07059642,0,0,0,0.000650299,-0.003743398,0.03452596,0.019115891,-0.000232582,-2.44E-05,0,-0.04717407,-0.020505607,0.005043111,1.5615817,1.5599612,28.71612,0.1,0.1474533,0.8522975,0.43579534,0.58034194,inf,inf,inf,inf,0,1,0,1,1,0,1,0,1,1,1,1,2
4000000,4000000,804000,36.3215774,127.4117224,-0.002575272,-0.001352856,0.07130315,0,0,0,-0.012009038,-0.000279589,0.035053957,0.013926484,-0.000232582,-2.44E-05,0,-0.012227984,-0.002341311,0.000187196,1.5616859,1.5599612,28.71612,0.1,0.1715199,0.8832835,0.4374134,0.5784843,inf,inf,inf,inf,0,1,0,1,1,0,1,0,1,1,1,1,2
4500000,4500000,804000,36.3215774,127.4117224,-0.005669685,0.001706372,0.07643129,0,0,0,-0.010369507,0.006129753,0.03498919,0.0135008,-0.000232582,-2.44E-05,0,0.009303774,0.010132142,-0.06467755,1.5619129,0.000198782,28.71612,0.1,0.11754637,0.90345037,0.24858882,0.56468695,inf,inf,inf,inf,0,1,0,1,1,0,1,0,2,1,1,1,2
5000000,5000000,804000,36.3215774,127.4117224,-0.003505234,0.002716324,0.0668962,0,0,0,-0.004025854,0.002837943,0.024798099,-0.006700386,-0.000232582,-2.44E-05,0,-0.11507376,-0.029478446,-0.011536292,1.5576682,0.000198782,28.71612,0.1,0.12841561,0.91356987,0.30210665,0.5451056,inf,inf,inf,inf,0,1,0,1,1,0,1,0,2,1,1,1,2
5500000,5500000,804000,36.3215774,127.4117224,-0.000343344,-0.000661535,0.046495624,0.00039837,6.51E-05,0,-0.001517162,-0.008879011,0.002761928,-0.037214242,-0.001178325,-0.008305827,-0.011701867,-0.02816466,-0.015297229,-0.008163973,1.559956,0.000198782,28.71612,0.1,1.0002997,0.87889844,0.27361074,0.21917625,inf,inf,inf,inf,1,1,1,1,2,0,2,1,2,1,1,1,2
6000000,6000000,804000,36.3215774,127.4117224,-0.000182904,-0.004481061,0.032987162,0.00039837,6.51E-05,0,-0.001961396,-0.004307544,0.002934711,-0.029451357,-0.001178325,-0.008305827,-0.011701867,0.002384317,0.009205251,-0.025236046,1.560823,0.000198782,28.71612,0.10233189,0.8236404,0.74460024,0.2731503,0.20905657,inf,inf,inf,inf,1,1,1,1,2,0,2,1,2,1,1,1,0
6500000,6500000,804000,36.3215774,127.4117224,-0.003046378,-0.001565319,0.033332817,0.00039837,6.51E-05,0,-0.006754655,0.000853119,0.00627153,-0.012984999,-0.001178325,-0.008305827,-0.011701867,-0.011312828,0.04327977,0.038987953,1.5618757,0.000198782,28.71612,0.10798258,0.7290209,0.6614403,0.317362,0.21220994,inf,inf,inf,inf,1,1,1,1,2,0,2,1,2,1,1,1,0
7000000,7000000,804000,36.3215774,127.4117224,-0.004930588,0.000893957,0.045713276,0.00039837,6.51E-05,0,-0.006630104,0.00283848,0.015569498,0.00892691,-0.001178325,-0.008305827,-0.011701867,0.04306731,0.03691009,0.057387162,1.5620222,0.000198782,28.71612,0.103268236,0.6780843,0.62353486,0.36661398,0.22224349,inf,inf,inf,inf,1,1,1,1,2,0,2,1,2,1,1,1,0
7500000,7500000,804000,36.3215774,127.4117224,-0.000582813,0.002266805,0.05212778,0.00039837,6.51E-05,0,-0.000843746,0.001089805,0.01709905,0.010220526,-0.001178325,-0.008305827,-0.011701867,-0.033356987,-0.04746199,0.104120925,1.5606194,0.000198782,28.71612,0.1,0.5749701,0.58117074,0.30187523,0.20903166,inf,inf,inf,inf,1,1,1,1,2,0,2,1,2,1,1,1,0
8000000,8000000,804000,36.3215774,127.4117224,0.003264952,-0.000484452,0.0535383,0.00039837,6.51E-05,0,0.009654446,-0.00269225,0.019875722,0.008949026,-0.001178325,-0.008305827,-0.011701867,-0.010127572,0.12498779,0.03721192,1.5606635,0.000198782,28.71612,0.1,0.56259036,0.5667803,0.3260796,0.2176834,inf,inf,inf,inf,1,1,1,1,2,0,2,1,2,1,1,1,0
8500000,8500000,804000,36.3215774,127.4117224,0.007614375,-0.004291917,0.05440978,0.00039837,6.51E-05,0,0.017313026,-0.006913894,0.022313423,0.008096834,-0.001178325,-0.008305827,-0.011701867,-0.032098863,-0.06800014,0.037036832,1.5601377,0.000198782,28.71612,0.1,0.55966234,0.5589694,0.34910244,0.22403024,inf,inf,inf,inf,1,1,1,1,2,0,2,1,2,1,1,1,0
9000000,9000000,804000,36.3215774,127.4117224,-0.002424848,-0.005296507,0.04205884,0.00039837,6.51E-05,0,0.003196652,-0.009662279,0.009834997,-0.013938459,-0.001178325,-0.008305827,-0.011701867,0.00836652,-0.06718638,0.035755333,1.560336,0.000198782,28.71612,0.1,0.5639953,0.55540234,0.37155402,0.2279119,inf,inf,inf,inf,1,1,1,1,2,0,2,1,2,1,1,1,0
9500000,9500000,804000,36.3215774,127.4117224,-0.006649357,0.001910398,0.032140948,0.00039837,6.51E-05,0,-0.003426357,0.003877016,0.004027668,-0.02098417,-0.001178325,-0.008305827,-0.011701867,0.029918466,0.06937118,0.01090858,1.5600572,0.000198782,28.71612,0.1,0.50288695,0.52951944,0.29400757,0.20568152,inf,inf,inf,inf,1,1,1,1,2,0,2,1,2,1,1,1,0
10000000,10000000,804000,36.3215774,127.4117224,-0.012648803,0.004237434,0.014709155,0.00039837,6.51E-05,0,-0.008813277,0.00461283,-0.003411833,-0.030328661,-0.001178325,-0.008305827,-0.011701867,-0.03943753,0.03342931,-0.017079523,1.5591891,0.000198782,28.71612,0.10151587,0.5097759,0.5300391,0.31089732,0.20681371,inf,inf,inf,inf,1,1,1,1,2,0,2,1,2,1,1,1,0
10500000,10500000,804000,36.3215774,127.4117224,-0.01205872,0.004266461,0.009889063,0.00039837,6.51E-05,0,-0.008510381,0.007515349,-0.005717046,-0.02295704,-0.001178325,-0.008305827,-0.011701867,0.024811717,0.008743415,0.03752112,1.5595891,0.000198782,28.71612,0.104027696,0.5200145,0.5261496,0.3262095,0.20580307,inf,inf,inf,inf,1,1,1,1,2,0,2,1,2,1,1,1,0
11000000,11000000,804000,36.3215774,127.4117224,-0.017122013,0.003124375,0.022615086,0.00039837,6.51E-05,0,-0.007831799,0.005694112,0.003785025,0.00406331,-0.001178325,-0.008305827,-0.011701867,0.005921507,-0.020323288,-0.039143484,1.5594864,0.000198782,28.71612,0.107159525,0.5331732,0.5289253,0.33959293,0.2047346,inf,inf,inf,inf,1,1,1,1,2,0,2,1,2,1,1,1,0
11500000,11500000,804000,36.3215774,127.4117224,-0.009074712,0.001452168,0.034229685,0.00039837,6.51E-05,0,0.000654643,0.005111753,0.005132327,0.011599497,-0.001178325,-0.008305827,-0.011701867,0.027562004,-0.006856416,0.024342908,1.5584116,0.000198782,28.71612,0.10482785,0.48361626,0.5107254,0.27346185,0.18568523,inf,inf,inf,inf,1,1,1,1,2,0,2,1,2,1,1,1,0
12000000,12000000,804000,36.3215774,127.4117224,-0.002387299,-0.002234747,0.03991357,0.00039837,6.51E-05,0,0.003721681,2.36E-05,0.006998353,0.012843975,-0.001178325,-0.008305827,-0.011701867,0.023201928,-0.025169762,0.017545184,1.5580426,0.000198782,28.71612,0.10181993,0.49493074,0.5145068,0.28397086,0.18468922,inf,inf,inf,inf,1,1,1,1,2,0,2,1,2,1,1,1,0
12500000,12500000,804000,36.3215774,127.4117224,0.002611924,-0.00209469,0.03519594,0.00039837,6.51E-05,0,0.00730654,-0.000128766,0.007381538,0.002776473,-0.001178325,-0.008305827,-0.011701867,0.049832646,-0.0722828,0.048825514,1.5576582,0.000198782,28.71612,0.1,0.50810266,0.5128682,0.29317385,0.18230075,inf,inf,inf,inf,1,1,1,1,2,0,2,1,2,1,1,1,0
13000000,13000000,804000,36.3215774,127.4117224,0.004291102,-0.010491519,0.031318594,0.00039837,6.51E-05,0,0.00579476,-0.006113082,0.004554327,-0.003150838,-0.001178325,-0.008305827,-0.011701867,0.019650744,0.023597334,-0.046191733,1.5567752,0.000198782,28.71612,0.1,0.52294666,0.51696074,0.3012571,0.18053472,inf,inf,inf,inf,1,1,1,1,2,0,2,1,2,1,1,1,0
13500000,13500000,804000,36.3215774,127.4117224,5.60E-05,-0.012699663,0.040270373,0.00039837,6.51E-05,0,0.002827389,-0.008384771,0.015885374,0.01359685,-0.001178325,-0.008305827,-0.011701867,-0.04059105,-0.019721435,0.021674668,1.5555415,0.000198782,28.71612,0.1,0.47794482,0.503439,0.25000396,0.16645248,inf,inf,inf,inf,1,1,1,1,2,0,2,1,2,1,1,1,0
14000000,14000000,804000,36.3215774,127.4117224,0.001969075,-0.019262172,0.040308177,0.00039837,6.51E-05,0,0.004691339,-0.012794245,0.017672444,0.00918218,-0.001178325,-0.008305827,-0.011701867,0.005013497,-0.03850199,-0.001569278,1.5556026,0.000198782,28.71612,0.1,0.49035782,0.5076119,0.25717163,0.16511706,inf,inf,inf,inf,1,1,1,1,2,0,2,1,2,1,1,1,0
14500000,14500000,804000,36.3215774,127.4117224,0.001371829,-0.023003662,0.039727513,0.00039837,6.51E-05,0,0.002883555,-0.015586276,0.012260002,0.000135404,-0.001178325,-0.008305827,-0.011701867,0.03227802,0.010818868,-0.06453785,1.5551771,0.000198782,28.71612,0.1,0.50401723,0.51132876,0.2637483,0.16349238,inf,inf,inf,inf,1,1,1,1,2,0,2,1,2,1,1,1,0
15000000,15000000,804000,36.3215774,127.4117224,0.005444512,-0.017763361,0.040966127,0.00039837,6.51E-05,0,0.007242185,-0.006875739,0.01596672,0.00542078,-0.001178325,-0.008305827,-0.011701867,-0.060058806,0.019978257,0.07433537,1.55521,0.000198782,28.71612,0.1,0.5188085,0.5145794,0.26970845,0.16165535,inf,inf,inf,inf,1,1,1,1,2,0,2,1,2,1,1,1,0
15500000,15500000,804000,36.3215774,127.4117224,0.007637357,-0.010962873,0.050066385,0.00039837,6.51E-05,0,0.013372476,-0.001054283,0.01889211,0.012206094,-0.001178325,-0.008305827,-0.011701867,-0.013931591,0.020853978,-0.054172236,1.5551808,0.000198782,28.71612,0.1,0.47614995,0.49731573,0.22995646,0.15008323,inf,inf,inf,inf,1,1,1,1,2,0,2,1,2,1,1,1,0
16000000,16000000,804000,36.3215774,127.4117224,0.008435645,-0.010231356,0.05007072,0.00039837,6.51E-05,0,0.013067396,-0.007206813,0.01912826,0.007855767,-0.001178325,-0.008305827,-0.011701867,-0.025840139,-0.008625669,0.073869705,1.5549867,0.000198782,28.71612,0.1,0.4886808,0.50025284,0.2356242,0.14868814,inf,inf,inf,inf,1,1,1,1,2,0,2,1,2,1,1,1,0
16500000,16500000,804000,36.3215774,127.4117224,0.008072184,-0.009498959,0.053978346,0.00039837,6.51E-05,0,0.012815176,-0.004856607,0.016235907,0.005744943,-0.001178325,-0.008305827,-0.011701867,-0.02364287,-0.03837296,0.09413715,1.5539515,0.000198782,28.71612,0.1,0.50213766,0.50307053,0.24098958,0.14724669,inf,inf,inf,inf,1,1,1,1,2,0,2,1,2,1,1,1,0
17000000,17000000,804000,36.3215774,127.4117224,0.0072618,-0.004109559,0.04911609,0.00039837,6.51E-05,0,0.012673697,-0.000751261,0.014587015,-0.001430234,-0.001178325,-0.008305827,-0.011701867,0.004504856,-0.02124525,-0.046579164,1.5544491,0.000198782,28.71612,0.1,0.5164437,0.5054469,0.24601033,0.14569287,inf,inf,inf,inf,1,1,1,1,2,0,2,1,2,1,1,1,0
17500000,17500000,804000,36.3215774,127.4117224,0.006838686,-0.004146689,0.045780294,0.00039837,6.51E-05,0,0.009932285,-0.007220691,0.014476643,-0.001969526,-0.001178325,-0.008305827,-0.011701867,0.020828968,-0.06333965,0.029609537,1.5546113,0.000198782,28.71612,0.1,0.47542083,0.49485025,0.21415113,0.13744055,inf,inf,inf,inf,1,1,1,1,2,0,2,1,2,1,1,1,0
18000000,18000000,804000,36.3215774,127.4117224,0.004479547,-0.005927539,0.05173245,0.00039837,6.51E-05,0,0.005103835,-0.011894058,0.019345745,0.008766677,-0.001178325,-0.008305827,-0.011701867,0.02411835,0.026276378,0.09034573,1.5547644,0.000198782,28.71612,0.101423845,0.48774043,0.4967661,0.21910384,0.13630937,inf,inf,inf,inf,1,1,1,1,2,0,2,1,2,1,1,1,0
18500000,18500000,804000,36.3215774,127.4117224,0.001925077,-0.010712563,0.05863359,0.00039837,6.51E-05,0,0.002167729,-0.015971702,0.01895197,0.009789643,-0.001178325,-0.008305827,-0.011701867,0.035330456,-0.039831765,0.002975575,1.5541884,0.000198782,28.71612,0.1,0.5007988,0.4983872,0.22391468,0.13526864,inf,inf,inf,inf,1,1,1,1,2,0,2,1,2,1,1,1,0
19000000,19000000,804000,36.3215774,127.4117224,-0.010066457,-0.017414033,0.059429616,0.00039837,6.51E-05,0,-0.005970992,-0.02445519,0.020872712,0.008427424,-0.001178325,-0.008305827,-0.011701867,0.032596856,0.008575655,0.026412306,1.5541961,0.000198782,28.71612,0.1,0.5145528,0.50013006,0.22859064,0.13447224,inf,inf,inf,inf,1,1,1,1,2,0,2,1,2,1,1,1,0
19500000,19500000,804000,36.3215774,127.4117224,-0.011175534,-0.016117748,0.060106594,0.00039837,6.51E-05,0,-0.006189818,-0.024029113,0.026022153,0.010098363,-0.001178325,-0.008305827,-0.011701867,-0.015788227,-0.008434161,0.052481886,1.5539259,0.000198782,28.71612,0.1,0.47488514,0.49100795,0.2020878,0.12850581,inf,inf,inf,inf,1,1,1,1,2,0,2,1,2,1,1,1,0
20000000,20000000,804000,36.3215774,127.4117224,-0.007681229,-0.012591923,0.059674647,0.00039837,6.51E-05,0,-0.002050292,-0.015104002,0.030001353,0.008641546,-0.001178325,-0.008305827,-0.011701867,-0.041739583,0.049979195,-0.023460945,1.5538892,0.000198782,28.71612,0.1,0.48689255,0.49265677,0.20675999,0.12833215,inf,inf,inf,inf,1,1,1,1,2,0,2,1,2,1,1,1,0
20500000,20500000,804000,36.3215774,127.4117224,-0.006314511,-0.006968486,0.06112612,0.00039837,6.51E-05,0,-0.004228274,-0.01103737,0.032222524,0.008342369,-0.001178325,-0.008305827,-0.011701867,0.029990459,-0.009321484,0.011967494,1.554374,0.000198782,28.71612,0.1,0.45840323,0.48483217,0.19022897,0.12387841,inf,inf,inf,inf,1,1,1,1,2,0,2,1,2,1,1,1,0
21000000,21000000,804000,36.3215774,127.4117224,-0.002751082,-0.002242453,0.07064574,0.00039837,6.51E-05,0,-0.000524774,-0.007515206,0.033846885,0.015156643,-0.001178325,-0.008305827,-0.011701867,0.05109592,-0.04410219,0.05163252,1.5543551,0.000198782,28.71612,0.10079054,0.47588837,0.4868776,0.200534,0.124826916,inf,inf,inf,inf,1,1,1,1,2,0,2,1,2,1,1,1,0
21500000,21500000,804000,36.3215774,127.4117224,0.000365232,-0.003127663,0.07729479,0.00039837,6.51E-05,0,0.006033618,-0.012728184,0.03630748,0.016789764,-0.001178325,-0.008305827,-0.011701867,-0.029099764,0.045615606,-0.06758328,1.5543249,0.000198782,28.71612,0.1,0.45114952,0.4760471,0.1860522,0.12092635,inf,inf,inf,inf,1,1,1,1,2,0,2,1,2,1,1,1,0
22000000,22000000,804000,36.3215774,127.4117224,-3.09E-05,-0.008168341,0.085327834,0.00039837,6.51E-05,0,0.004376009,-0.014475871,0.041304052,0.021449916,-0.001178325,-0.008305827,-0.011701867,0.053953506,-0.001175271,0.008921138,1.5544236,0.000198782,28.71612,0.1,0.46611437,0.47435766,0.19295824,0.12170784,inf,inf,inf,inf,1,1,1,1,2,0,2,1,2,1,1,1,0
22500000,22500000,804000,36.3215774,127.4117224,-0.002138239,-0.012785932,0.09037819,0.00039837,6.51E-05,0,0.000342665,-0.01913385,0.042443573,0.017584214,-0.001178325,-0.008305827,-0.011701867,-0.03878778,0.022601197,0.007261522,1.5547807,0.000198782,28.71612,0.1,0.4816319,0.48164266,0.19924374,0.1236288,inf,inf,inf,inf,1,1,1,1,2,0,2,1,2,1,1,1,0
23000000,23000000,804000,36.3215774,127.4117224,-0.004720981,-0.014504868,0.091715865,0.00039837,6.51E-05,0,-0.008583901,-0.02078449,0.04493394,0.015173756,-0.001178325,-0.008305827,-0.011701867,-0.02724124,-0.027765183,-0.009843147,1.5549238,0.000198782,28.71612,0.1,0.49752808,0.4843956,0.20503317,0.12498209,inf,inf,inf,inf,1,1,1,1,2,0,2,1,2,1,1,1,0
23500000,23500000,804000,36.3215774,127.4117224,-0.008538366,-0.012605612,0.08993863,0.00039837,6.51E-05,0,-0.011852355,-0.019707847,0.04743016,0.010101685,-0.001178325,-0.008305827,-0.011701867,-0.056956623,-0.027477207,0.016481614,1.5547115,0.000198782,28.71612,0.1,0.46482593,0.47830248,0.18600573,0.12176985,inf,inf,inf,inf,1,1,1,1,2,0,2,1,2,1,1,1,0
24000000,24000000,804000,36.3215774,127.4117224,-0.008398795,-0.01191797,0.084031254,0.00039837,6.51E-05,0,-0.014958542,-0.022141559,0.052386057,0.007014396,-0.001178325,-0.008305827,-0.011701867,0.07240654,-0.048362736,-0.041825693,1.5549073,0.000198782,28.71612,0.1,0.47806567,0.4764967,0.19096945,0.12261248,inf,inf,inf,inf,1,1,1,1,2,0,2,1,2,1,1,1,0
24500000,24500000,804000,36.3215774,127.4117224,-0.014035492,-0.011804604,0.08955401,0.00039837,6.51E-05,0,-0.02369286,-0.021644874,0.061050627,0.017977046,-0.001178325,-0.008305827,-0.011701867,0.0092286,-0.067077965,0.03567524,1.555016,0.000198782,28.71612,0.1,0.49161628,0.4790363,0.19584113,0.12395177,inf,inf,inf,inf,1,1,1,1,2,0,2,1,2,1,1,1,0
25000000,25000000,804000,36.3215774,127.4117224,-0.017171819,-0.016368974,0.094005935,0.00039837,6.51E-05,0,-0.028128618,-0.02242437,0.0671369,0.020137418,-0.001178325,-0.008305827,-0.011701867,0.000893675,0.10400512,0.047444362,1.5553488,0.000198782,28.71612,0.1,0.50547254,0.4816403,0.20066771,0.12528294,inf,inf,inf,inf,1,1,1,1,2,0,2,1,2,1,1,1,0
25500000,25500000,804000,36.3215774,127.4117224,-0.012963197,-0.017494123,0.09727867,0.00039837,6.51E-05,0,-0.025287777,-0.023953544,0.069358334,0.017894272,-0.001178325,-0.008305827,-0.011701867,0.018956741,-0.050694473,0.051283274,1.5550735,0.000198782,28.71612,0.1,0.47011772,0.47568652,0.18225482,0.1220315,inf,inf,inf,inf,1,1,1,1,2,0,2,1,2,1,1,1,0
26000000,26000000,804000,36.3215774,127.4117224,-0.011133803,-0.016659377,0.10451384,0.00039837,6.51E-05,0,-0.025358073,-0.02287462,0.07819231,0.023919597,-0.001178325,-0.008305827,-0.011701867,0.027695619,0.009217117,-0.031060537,1.5548596,0.000198782,28.71612,0.1,0.4820872,0.47827706,0.1869785,0.12337336,inf,inf,inf,inf,1,1,1,1,2,0,2,1,2,1,1,1,0
26500000,26500000,804000,36.3215774,127.4117224,-0.008585054,-0.01718955,0.11246068,0.00039837,6.51E-05,0,-0.017594893,-0.02212266,0.081588216,0.024503741,-0.001178325,-0.008305827,-0.011701867,0.024023553,0.028231744,-0.010431743,1.5546288,0.000198782,28.71612,0.1,0.4944535,0.4811995,0.19180268,0.12475859,inf,inf,inf,inf,1,1,1,1,2,0,2,1,2,1,1,1,0
27000000,27000000,804000,36.3215774,127.4117224,-0.006313349,-0.016078098,0.123618074,0.00039837,6.51E-05,0,-0.012931271,-0.024380663,0.08340824,0.026817404,-0.001178325,-0.008305827,-0.011701867,-0.010717819,0.061411794,0.1060171,1.5551721,0.000198782,28.71612,0.1,0.5072477,0.47959664,0.19669196,0.12553383,inf,inf,inf,inf,1,1,1,1,2,0,2,1,2,1,1,1,0
27500000,27500000,804000,36.3215774,127.4117224,0.001613662,-0.0124402,0.12622298,0.00039837,6.51E-05,0,-0.000779297,-0.02289712,0.08575213,0.02193839,-0.001178325,-0.008305827,-0.011701867,0.057058923,0.005712614,0.003694556,1.5558703,0.000198782,28.71612,0.1,0.47153395,0.47410035,0.17939799,0.12228398,inf,inf,inf,inf,1,1,1,1,2,0,2,1,2,1,1,1,0
28000000,28000000,804000,36.3215774,127.4117224,0.005312529,-0.009188199,0.1302679,0.00039837,6.51E-05,0,0.000433734,-0.017921356,0.08688371,0.019104546,-0.001178325,-0.008305827,-0.011701867,0.0403833,0.006382444,0.06274599,1.5559794,0.000198782,28.71612,0.1,0.48287356,0.47722265,0.18424004,0.12367018,inf,inf,inf,inf,1,1,1,1,2,0,2,1,2,1,1,1,0
28500000,28500000,804000,36.3215774,127.4117224,0.008209461,-0.00780317,0.1447599,0.00039837,6.51E-05,0,0.007199702,-0.019934352,0.09083221,0.027300587,-0.001178325,-0.008305827,-0.011701867,0.062200528,0.009396355,-0.007454305,1.5556719,0.000198782,28.71612,0.1,0.49469924,0.48022723,0.18914591,0.124983385,inf,inf,inf,inf,1,1,1,1,2,0,2,1,2,1,1,1,0
29000000,29000000,804000,36.3215774,127.4117224,0.008070736,-0.011860658,0.1583687,0.00039837,6.51E-05,0,0.008956078,-0.023099715,0.09532353,0.032505024,-0.001178325,-0.008305827,-0.011701867,0.010230362,-0.067946486,0.047933307,1.5560197,0.000198782,28.71612,0.1,0.50703526,0.478855,0.19412778,0.12572515,inf,inf,inf,inf,1,1,1,1,2,0,2,1,2,1,1,1,0
29500000,29500000,804000,36.3215774,127.4117224,0.008326225,-0.010879193,0.15751146,0.00039837,6.51E-05,0,0.01859038,-0.018540097,0.09381973,0.0193141,-0.001178325,-0.008305827,-0.011701867,-0.07620874,-0.000635918,0.004023313,1.5558276,0.000198782,28.71612,0.1,0.47157672,0.47352663,0.1775874,0.12242779,inf,inf,inf,inf,1,1,1,1,2,0,2,1,2,1,1,1,0
30000000,30000000,804000,36.3215774,127.4117224,0.007752013,-0.009534484,0.16303696,0.00039837,6.51E-05,0,0.022064116,-0.016917285,0.09478922,0.017455604,-0.001178325,-0.008305827,-0.011701867,0.013317969,-0.013134218,0.005328096,1.5566039,0.000198782,28.71612,0.1,0.4826481,0.47664678,0.18248756,0.12374713,inf,inf,inf,inf,1,1,1,1,2,0,2,1,2,1,1,1,0
30500000,30500000,804000,36.3215774,127.4117224,0.011881917,-0.009281051,0.1739313,0.00039837,6.51E-05,0,0.026985075,-0.017914888,0.09016195,0.017228086,-0.001178325,-0.008305827,-0.011701867,0.041092593,-0.087203585,0.03461912,1.5569197,0.000198782,28.71612,0.1,0.49425253,0.47961628,0.18748365,0.12499793,inf,inf,inf,inf,1,1,1,1,2,0,2,1,2,1,1,1,0
31000000,31000000,804000,36.3215774,127.4117224,0.017154258,-0.013493524,0.1816786,0.00039837,6.51E-05,0,0.032225642,-0.021439182,0.089381844,0.016452562,-0.001178325,-0.008305827,-0.011701867,0.006421865,0.001694445,-0.03231596,1.5570579,0.000198782,28.71612,0.1,0.50640917,0.478308,0.19251844,0.12571116,inf,inf,inf,inf,1,1,1,1,2,0,2,1,2,1,1,1,0
31500000,31500000,804000,36.3215774,127.4117224,0.024322301,-0.023731364,0.17850594,0.00039837,6.51E-05,0,0.034828592,-0.030056419,0.07966192,0.001583529,-0.001178325,-0.008305827,-0.011701867,0.047954414,-0.07312562,0.020958481,1.5571266,0.000198782,28.71612,0.1,0.47127447,0.47719395,0.17648204,0.12287696,inf,inf,inf,inf,1,1,1,1,2,0,2,1,2,1,1,1,0
32000000,32000000,804000,36.3215774,127.4117224,0.018489154,-0.024637502,0.17812309,0.00039837,6.51E-05,0,0.02558458,-0.031268016,0.07274007,-0.003262861,-0.001178325,-0.008305827,-0.011701867,0.054826792,-0.017725002,-0.001459382,1.5573539,0.000198782,28.71612,0.1,0.48224166,0.48010474,0.18142012,0.1241259,inf,inf,inf,inf,1,1,1,1,2,0,2,1,2,1,1,1,0
32500000,32500000,804000,36.3215774,127.4117224,0.013276045,-0.025459724,0.16708824,0.00039837,6.51E-05,0,0.019876165,-0.03443978,0.065843105,-0.015995873,-0.001178325,-0.008305827,-0.011701867,-0.013722488,-0.04920361,-0.019562429,1.5574675,0.000198782,28.71612,0.1,0.49376073,0.48290876,0.18640521,0.12533148,inf,inf,inf,inf,1,1,1,1,2,0,2,1,2,1,1,1,0
33000000,33000000,804000,36.3215774,127.4117224,0.01340433,-0.02337627,0.1553148,0.00039837,6.51E-05,0,0.020767754,-0.032974783,0.058353722,-0.02279194,-0.001178325,-0.008305827,-0.011701867,0.029187085,-0.028466413,0.022432765,1.5578061,0.000198782,28.71612,0.1,0.50584704,0.48124823,0.19146045,0.12597418,inf,inf,inf,inf,1,1,1,1,2,0,2,1,2,1,1,1,0
33500000,33500000,804000,36.3215774,127.4117224,0.011927674,-0.024539335,0.14693743,0.00039837,6.51E-05,0,0.014029511,-0.03920669,0.0505573,-0.025371779,-0.001178325,-0.008305827,-0.011701867,0.033204697,-0.02075118,0.06534065,1.5577509,0.000198782,28.71612,0.1,0.4709695,0.47567472,0.17570202,0.122606926,inf,inf,inf,inf,1,1,1,1,2,0,2,1,2,1,1,1,0
34000000,34000000,804000,36.3215774,127.4117224,0.007976073,-0.024968991,0.136097,0.00039837,6.51E-05,0,0.009536594,-0.04119483,0.04715586,-0.02597745,-0.001178325,-0.008305827,-0.011701867,0.07521093,-0.03027203,-0.032518055,1.5576569,0.000198782,28.71612,0.1,0.48188987,0.47451094,0.18062663,0.123409614,inf,inf,inf,inf,1,1,1,1,2,0,2,1,2,1,1,1,0
34500000,34500000,804000,36.3215774,127.4117224,0.004043948,-0.024788463,0.13475864,0.00039837,6.51E-05,0,0.005481035,-0.03973376,0.04831201,-0.014144526,-0.001178325,-0.008305827,-0.011701867,-0.007726239,-0.03457553,0.02338737,1.5579439,0.000198782,28.71612,0.10307725,0.49336657,0.4737691,0.1856096,0.12427643,inf,inf,inf,inf,1,1,1,1,2,0,2,1,2,1,1,1,0
35000000,35000000,804000,36.3215774,127.4117224,0.002902021,-0.028326077,0.13972352,0.00039837,6.51E-05,0,0.004357493,-0.03798871,0.056802984,0.003023631,-0.001178325,-0.008305827,-0.011701867,0.051877104,-0.034902755,0.065814696,1.5582035,0.000198782,28.71612,0.10203825,0.5054099,0.47743985,0.19063643,0.12565571,inf,inf,inf,inf,1,1,1,1,2,0,2,1,2,1,1,1,0
35500000,35500000,804000,36.3215774,127.4117224,0.002168258,-0.024430558,0.14315721,0.00039837,6.51E-05,0,0.004906343,-0.03457316,0.06197313,0.008650501,-0.001178325,-0.008305827,-0.011701867,-0.030251581,-0.015864898,-0.06424169,1.5582697,0.000198782,28.71612,0.1,0.47072536,0.4724659,0.17505899,0.12238603,inf,inf,inf,inf,1,1,1,1,2,0,2,1,2,1,1,1,0
36000000,36000000,804000,36.3215774,127.4117224,0.002340668,-0.024386028,0.15045737,0.00039837,6.51E-05,0,0.010248846,-0.033452794,0.07435003,0.020589935,-0.001178325,-0.008305827,-0.011701867,0.034383852,0.042047195,0.05337223,1.5580369,0.000198782,28.71612,0.1,0.4816126,0.4758185,0.17994665,0.12370431,inf,inf,inf,inf,1,1,1,1,2,0,2,1,2,1,1,1,0
36500000,36500000,804000,36.3215774,127.4117224,0.004656086,-0.023732964,0.15782826,0.00039837,6.51E-05,0,0.01025793,-0.033909764,0.08185446,0.023823587,-0.001178325,-0.008305827,-0.011701867,0.020437118,0.067622826,0.073729075,1.5579399,0.000198782,28.71612,0.1,0.45296222,0.4707452,0.1674405,0.12055379,inf,inf,inf,inf,1,1,1,1,2,0,2,1,2,1,1,1,0
37000000,37000000,804000,36.3215774,127.4117224,0.007442937,-0.022462167,0.16393265,0.00039837,6.51E-05,0,0.010269252,-0.028692525,0.091106884,0.026658548,-0.001178325,-0.008305827,-0.011701867,0.002059087,-0.015874919,0.008183531,1.5581,0.000198782,28.71612,0.1,0.46561405,0.47386315,0.1742455,0.12211581,inf,inf,inf,inf,1,1,1,1,2,0,2,1,2,1,1,1,0
37500000,37500000,804000,36.3215774,127.4117224,0.014673835,-0.020816717,0.1711805,0.00039837,6.51E-05,0,0.014319783,-0.026180366,0.101596184,0.031597998,-0.001178325,-0.008305827,-0.011701867,0.015886296,-0.007931713,0.022573395,1.5586271,0.000198782,28.71612,0.1,0.47897503,0.47695026,0.18074137,0.12362303,inf,inf,inf,inf,1,1,1,1,2,0,2,1,2,1,1,1,0
38000000,38000000,804000,36.3215774,127.4117224,0.017301524,-0.022513429,0.18638216,0.00039837,6.51E-05,0,0.012888149,-0.030567741,0.110247105,0.03983633,-0.001178325,-0.008305827,-0.011701867,-0.024157057,-0.046207964,0.10422896,1.5585428,0.000198782,28.71612,0.1,0.49294406,0.48023248,0.18694998,0.12512918,inf,inf,inf,inf,1,1,1,1,2,0,2,1,2,1,1,1,0
38500000,38500000,804000,36.3215774,127.4117224,0.018580537,-0.013068359,0.18685845,0.00039837,6.51E-05,0,0.00676578,-0.025807014,0.116348624,0.029430524,-0.001178325,-0.008305827,-0.011701867,-0.005143792,-0.005093195,0.019965691,1.558797,0.000198782,28.71612,0.1,0.46268317,0.47071356,0.17312415,0.12152305,inf,inf,inf,inf,1,1,1,1,2,0,2,1,2,1,1,1,0
39000000,39000000,804000,36.3215774,127.4117224,0.013394459,-0.009190959,0.18765049,0.00039837,6.51E-05,0,0.000389784,-0.019159056,0.1168357,0.020918107,-0.001178325,-0.008305827,-0.011701867,-0.002125555,-0.039482437,0.005575828,1.5587076,0.000198782,28.71612,0.1,0.47483292,0.4739798,0.1784868,0.12299477,inf,inf,inf,inf,1,1,1,1,2,0,2,1,2,1,1,1,0
39500000,39500000,804000,36.3215774,127.4117224,0.009074834,-0.010965646,0.19726098,0.00039837,6.51E-05,0,-0.00665464,-0.01792831,0.117217526,0.022357618,-0.001178325,-0.008305827,-0.011701867,-0.06127902,0.03995582,0.07154233,1.5591784,0.000198782,28.71612,0.1,0.48744094,0.47315326,0.18378872,0.12393807,inf,inf,inf,inf,1,1,1,1,2,0,2,1,2,1,1,1,0
40000000,40000000,804000,36.3215774,127.4117224,0.008126208,-0.011076257,0.20929766,0.00039837,6.51E-05,0,-0.009818196,-0.013089313,0.12448645,0.031853482,-0.001178325,-0.008305827,-0.011701867,0.026214007,0.07525504,0.073623836,1.5589906,0.000198782,28.71612,0.1,0.5004922,0.47674254,0.18903336,0.12537923,inf,inf,inf,inf,1,1,1,1,2,0,2,1,2,1,1,1,0
40500000,40500000,804000,36.3215774,127.4117224,0.008054252,-0.00768216,0.21579967,0.00039837,6.51E-05,0,-0.011895145,-0.003077228,0.12829387,0.029493343,-0.001178325,-0.008305827,-0.011701867,0.044442795,-0.02735072,0.025522893,1.559509,0.000198782,28.71612,0.1,0.4675227,0.47179195,0.1739828,0.122185074,inf,inf,inf,inf,1,1,1,1,2,0,2,1,2,1,1,1,0
41000000,41000000,804000,36.3215774,127.4117224,0.004292768,-0.008552007,0.22599128,0.00039837,6.51E-05,0,-0.021092089,-0.003239902,0.13235517,0.030752372,-0.001178325,-0.008305827,-0.011701867,0.009037769,0.007562119,0.06977468,1.5598565,0.000198782,28.71612,0.1,0.47899783,0.4752864,0.17893949,0.123589575,inf,inf,inf,inf,1,1,1,1,2,0,2,1,2,1,1,1,0
41500000,41500000,804000,36.3215774,127.4117224,-6.10E-06,-0.010745594,0.23551618,0.00039837,6.51E-05,0,-0.023232346,-0.002655622,0.13227257,0.027290162,-0.001178325,-0.008305827,-0.011701867,-0.030780042,-0.010570169,0.043237578,1.560178,0.000198782,28.71612,0.1,0.49092856,0.4788577,0.18394639,0.124968626,inf,inf,inf,inf,1,1,1,1,2,0,2,1,2,1,1,1,0
42000000,42000000,804000,36.3215774,127.4117224,-0.013311662,-0.010011029,0.24950847,0.00039837,6.51E-05,0,-0.030532537,-0.000130313,0.1333471,0.030912358,-0.001178325,-0.008305827,-0.011701867,-0.027962035,-0.002622191,0.004723668,1.5606703,0.000198782,28.71612,0.1,0.5033348,0.4777916,0.18902287,0.12570405,inf,inf,inf,inf,1,1,1,1,2,0,2,1,2,1,1,1,0
42500000,42500000,804000,36.3215774,127.4117224,-0.011522984,-0.000101397,0.25104702,0.00039837,6.51E-05,0,-0.029726034,0.005458682,0.1341257,0.021608919,-0.001178325,-0.008305827,-0.011701867,-0.016777933,-0.024640193,0.037847083,1.5608261,0.000198782,28.71612,0.1,0.46939746,0.47268057,0.17386794,0.12240048,inf,inf,inf,inf,1,1,1,1,2,0,2,1,2,1,1,1,0
43000000,43000000,804000,36.3215774,127.4117224,-0.010748511,0.00198358,0.25511312,0.00039837,6.51E-05,0,-0.023596369,0.007183121,0.1280122,0.013190476,-0.001178325,-0.008305827,-0.011701867,0.06536626,-0.022741623,0.045777295,1.561111,0.000198782,28.71612,0.1,0.4804761,0.47591177,0.17880413,0.12369097,inf,inf,inf,inf,1,1,1,1,2,0,2,1,2,1,1,1,0
43500000,43500000,804000,36.3215774,127.4117224,-0.002592871,0.003202433,0.25497144,0.00039837,6.51E-05,0,-0.013358229,0.007737102,0.13017493,0.009663221,-0.001178325,-0.008305827,-0.011701867,0.03850797,-0.05284277,0.02833083,1.5609676,0.000198782,28.71612,0.1,0.49205756,0.47906977,0.18378669,0.12494295,inf,inf,inf,inf,1,1,1,1,2,0,2,1,2,1,1,1,0
44000000,44000000,804000,36.3215774,127.4117224,5.66E-05,0.009865321,0.25085568,0.00039837,6.51E-05,0,-0.008597836,0.008749954,0.11885202,-0.0032018,-0.001178325,-0.008305827,-0.011701867,0.008682214,0.012138031,0.053192485,1.5613837,0.000198782,28.71612,0.1,0.5041663,0.47776812,0.18888794,0.12561479,inf,inf,inf,inf,1,1,1,1,2,0,2,1,2,1,1,1,0
44500000,44500000,804000,36.3215774,127.4117224,-0.000367678,0.011625374,0.2447627,0.00039837,6.51E-05,0,-0.010158049,0.011722575,0.114667125,-0.006766605,-0.001178325,-0.008305827,-0.011701867,0.048563838,0.02708856,0.07464736,1.5613048,0.000198782,28.71612,0.1,0.4699738,0.47255346,0.1738,0.12229735,inf,inf,inf,inf,1,1,1,1,2,0,2,1,2,1,1,1,0
45000000,45000000,804000,36.3215774,127.4117224,-0.001979391,0.009687541,0.24496429,0.00039837,6.51E-05,0,-0.011024972,0.006753626,0.11652655,-0.001418168,-0.001178325,-0.008305827,-0.011701867,0.05777787,0.017128078,0.07674842,1.561688,0.000198782,28.71612,0.1,0.48088205,0.47577512,0.1787071,0.12359746,inf,inf,inf,inf,1,1,1,1,2,0,2,1,2,1,1,1,0
45500000,45500000,804000,36.3215774,127.4117224,-0.005506598,0.006319315,0.24696355,0.00039837,6.51E-05,0,-0.012546653,0.000557711,0.1185328,0.003532676,-0.001178325,-0.008305827,-0.011701867,0.023873653,0.04176445,0.053889114,1.5615991,0.000198782,28.71612,0.1,0.49232563,0.47913402,0.18369515,0.12490947,inf,inf,inf,inf,1,1,1,1,2,0,2,1,2,1,1,1,0
46000000,46000000,804000,36.3215774,127.4117224,-0.008726144,0.003870898,0.25349683,0.00039837,6.51E-05,0,-0.018096283,-0.00136361,0.12411051,0.013743147,-0.001178325,-0.008305827,-0.011701867,-0.00767635,-0.01434042,0.04540849,1.5620688,0.000198782,28.71612,0.1,0.50432056,0.48237377,0.1887462,0.12616825,inf,inf,inf,inf,1,1,1,1,2,0,2,1,2,1,1,1,0
46500000,46500000,804000,36.3215774,127.4117224,-0.008067437,0.00652851,0.25317502,0.00039837,6.51E-05,0,-0.020630917,-0.002953779,0.12991333,0.013879145,-0.001178325,-0.008305827,-0.011701867,-0.007279024,-0.096672066,0.02945028,1.5618832,0.000198782,28.71612,0.1,0.47009498,0.4725863,0.1736589,0.12226986,inf,inf,inf,inf,1,1,1,1,2,0,2,1,2,1,1,1,0
47000000,47000000,804000,36.3215774,127.4117224,-0.008744569,0.010031444,0.2538671,0.00039837,6.51E-05,0,-0.029436726,-4.27E-05,0.12863769,0.008417089,-0.001178325,-0.008305827,-0.011701867,-0.042449623,0.007469768,0.005433335,1.5615098,0.000198782,28.71612,0.1,0.48093852,0.47571817,0.17858051,0.12355327,inf,inf,inf,inf,1,1,1,1,2,0,2,1,2,1,1,1,0
47500000,47500000,804000,36.3215774,127.4117224,-0.012127068,0.013333071,0.2540177,0.00039837,6.51E-05,0,-0.039565172,0.001329361,0.12921038,0.007867695,-0.001178325,-0.008305827,-0.011701867,-0.025301747,0.0096542,0.06620678,1.5612545,0.000198782,28.71612,0.1,0.49233288,0.4791079,0.18358293,0.12488215,inf,inf,inf,inf,1,1,1,1,2,0,2,1,2,1,1,1,0
48000000,48000000,804000,36.3215774,127.4117224,-0.009942337,0.010303577,0.24229252,0.00039837,6.51E-05,0,-0.037781455,-0.003332347,0.12524496,-0.007301756,-0.001178325,-0.008305827,-0.011701867,0.052445903,0.029042995,-0.023134982,1.5613831,0.000198782,28.71612,0.1,0.4625633,0.4739661,0.17123732,0.12180515,inf,inf,inf,inf,1,1,1,1,2,0,2,1,2,1,1,1,0
48500000,48500000,804000,36.3215774,127.4117224,-0.00854245,0.008219462,0.24154234,0.00039837,6.51E-05,0,-0.031946708,-0.001399527,0.12239386,-0.004528005,-0.001178325,-0.008305827,-0.011701867,-0.038772043,0.013414708,-0.010984949,1.5616032,0.000198782,28.71612,0.1,0.47590235,0.4732572,0.17815621,0.122955754,inf,inf,inf,inf,1,1,1,1,2,0,2,1,2,1,1,1,0
49000000,49000000,804000,36.3215774,127.4117224,-0.01085793,0.006073122,0.24846053,0.00039837,6.51E-05,0,-0.03444599,-0.003997095,0.12480617,0.007401967,-0.001178325,-0.008305827,-0.011701867,0.021923022,0.07814791,0.06291735,1.5614403,0.000198782,28.71612,0.1,0.48994163,0.47705796,0.18473107,0.12460992,inf,inf,inf,inf,1,1,1,1,2,0,2,1,2,1,1,1,0
49500000,49500000,804000,36.3215774,127.4117224,-0.010580471,0.006871671,0.25384003,0.00039837,6.51E-05,0,-0.028605148,0.000336543,0.1242935,0.010642058,-0.001178325,-0.008305827,-0.011701867,0.0029166,0.044165198,0.042937692,1.5618838,0.000198782,28.71612,0.1,0.46078104,0.47233188,0.17176542,0.12165884,inf,inf,inf,inf,1,1,1,1,2,0,2,1,2,1,1,1,0
50000000,50000000,804000,36.3215774,127.4117224,-0.010772259,0.007780954,0.2682533,0.00039837,6.51E-05,0,-0.029700717,0.004206195,0.1305877,0.022949342,-0.001178325,-0.008305827,-0.011701867,-0.07854491,0.016271178,-0.001117587,1.5623435,0.000198782,28.71612,0.1,0.47303575,0.47583094,0.17728308,0.12318047,inf,inf,inf,inf,1,1,1,1,2,0,2,1,2,1,1,1,0
50500000,50500000,804000,36.3215774,127.4117224,-0.011095093,0.008493339,0.27688578,0.00039837,6.51E-05,0,-0.026179941,0.004244112,0.12949581,0.019728376,-0.001178325,-0.008305827,-0.011701867,-0.004983005,-0.03983966,0.035068948,1.5626066,0.000198782,28.71612,0.1,0.48576856,0.4749462,0.1826963,0.12410669,inf,inf,inf,inf,1,1,1,1,2,0,2,1,2,1,1,1,0
51000000,51000000,804000,36.3215774,127.4117224,-0.018126478,0.015304117,0.27918246,0.00039837,6.51E-05,0,-0.030668007,0.012452214,0.13266148,0.017575517,-0.001178325,-0.008305827,-0.011701867,-0.0497551,0.05833778,0.03639422,1.5625832,0.000198782,28.71612,0.1,0.49895248,0.47850263,0.18802623,0.12553991,inf,inf,inf,inf,1,1,1,1,2,0,2,1,2,1,1,1,0
51500000,51500000,804000,36.3215774,127.4117224,-0.019283367,0.027453862,0.27189845,0.00039837,6.51E-05,0,-0.034164198,0.01944167,0.13068618,0.004749795,-0.001178325,-0.008305827,-0.011701867,0.08618172,0.037682466,-0.007889233,1.5630704,0.000198782,28.71612,0.1,0.4665605,0.47351533,0.1733007,0.12234468,inf,inf,inf,inf,1,1,1,1,2,0,2,1,2,1,1,1,0
52000000,52000000,804000,36.3215774,127.4117224,-0.021104578,0.03152882,0.2716512,0.00039837,6.51E-05,0,-0.03618125,0.022078704,0.12978795,0.003956008,-0.001178325,-0.008305827,-0.011701867,0.028632667,0.002065986,-0.010388902,1.5631684,0.000198782,28.71612,0.1,0.4781227,0.47264397,0.17829354,0.123211436,inf,inf,inf,inf,1,1,1,1,2,0,2,1,2,1,1,1,0
52500000,52500000,804000,36.3215774,127.4117224,-0.027001085,0.02847943,0.2739022,0.00039837,6.51E-05,0,-0.036313288,0.01813837,0.12735903,0.003641415,-0.001178325,-0.008305827,-0.011701867,0.040858336,-0.012725722,0.044099983,1.5638849,0.000198782,28.71612,0.1,0.49013206,0.47617385,0.18331759,0.12458811,inf,inf,inf,inf,1,1,1,1,2,0,2,1,2,1,1,1,0
53000000,53000000,804000,36.3215774,127.4117224,-0.029719517,0.02336069,0.27853978,0.00039837,6.51E-05,0,-0.03583145,0.01451551,0.12800464,0.008196988,-0.001178325,-0.008305827,-0.011701867,0.001434997,-0.030447701,0.06418488,1.5638205,0.000198782,28.71612,0.1,0.50260407,0.47953096,0.18837805,0.12588389,inf,inf,inf,inf,1,1,1,1,2,0,2,1,2,1,1,1,0
53500000,53500000,804000,36.3215774,127.4117224,-0.018983101,0.021687927,0.2685591,0.00039837,6.51E-05,0,-0.02732006,0.01148633,0.12429505,-0.00361669,-0.001178325,-0.008305827,-0.011701867,-0.029748308,-0.000481115,0.06655417,1.563899,0.000198782,28.71612,0.1,0.46894422,0.47428524,0.17339404,0.122555465,inf,inf,inf,inf,1,1,1,1,2,0,2,1,2,1,1,1,0
54000000,54000000,804000,36.3215774,127.4117224,-0.015864681,0.026125629,0.2609686,0.00039837,6.51E-05,0,-0.025380865,0.012970903,0.119597815,-0.011827122,-0.001178325,-0.008305827,-0.011701867,0.026168872,0.018954663,0.04401337,1.5642757,0.000198782,28.71612,0.1,0.48005724,0.4735209,0.17831561,0.12340579,inf,inf,inf,inf,1,1,1,1,2,0,2,1,2,1,1,1,0
54500000,54500000,804000,36.3215774,127.4117224,-0.0152206,0.025334598,0.25240123,0.00039837,6.51E-05,0,-0.024010502,0.016892929,0.11309861,-0.01677079,-0.001178325,-0.008305827,-0.011701867,-0.001671153,0.000540567,0.030447727,1.5643911,0.000198782,28.71612,0.1,0.49166396,0.47704816,0.18330769,0.12474343,inf,inf,inf,inf,1,1,1,1,2,0,2,1,2,1,1,1,0
55000000,55000000,804000,36.3215774,127.4117224,-0.015908552,0.02162797,0.25034183,0.00039837,6.51E-05,0,-0.023828309,0.017016152,0.11027606,-0.011756957,-0.001178325,-0.008305827,-0.011701867,-0.011809657,-0.014725097,0.021783633,1.5644836,0.000198782,28.71612,0.1,0.5037856,0.47623718,0.18837218,0.12551466,inf,inf,inf,inf,1,1,1,1,2,0,2,1,2,1,1,1,0
55500000,55500000,804000,36.3215774,127.4117224,-0.012782549,0.02250223,0.24394068,0.00039837,6.51E-05,0,-0.021995697,0.020429004,0.10389747,-0.015973091,-0.001178325,-0.008305827,-0.011701867,-0.00120718,-0.044500794,-0.008200294,1.5650464,0.000198782,28.71612,0.1,0.46974283,0.47548747,0.17340387,0.122733675,inf,inf,inf,inf,1,1,1,1,2,0,2,1,2,1,1,1,0
56000000,56000000,804000,36.3215774,127.4117224,-0.010201531,0.023428557,0.24099892,0.00039837,6.51E-05,0,-0.024222212,0.015633011,0.09633658,-0.0171098,-0.001178325,-0.008305827,-0.011701867,-0.025453864,0.003976813,0.030313617,1.5652093,0.000198782,28.71612,0.1,0.4806557,0.4745231,0.17836349,0.123512864,inf,inf,inf,inf,1,1,1,1,2,0,2,1,2,1,1,1,0
56500000,56500000,804000,36.3215774,127.4117224,-0.009151818,0.023070885,0.23097637,0.00039837,6.51E-05,0,-0.018142201,0.01892802,0.089993335,-0.023007087,-0.001178325,-0.008305827,-0.011701867,0.007517399,-0.004845715,0.04170462,1.5650567,0.000198782,28.71612,0.1,0.49210015,0.47783744,0.18336686,0.12478974,inf,inf,inf,inf,1,1,1,1,2,0,2,1,2,1,1,1,0
57000000,57000000,804000,36.3215774,127.4117224,-0.00791556,0.023455791,0.22175927,0.00039837,6.51E-05,0,-0.012866686,0.02228914,0.082372524,-0.025468148,-0.001178325,-0.008305827,-0.011701867,0.011404779,0.027796034,-0.020404344,1.56525,0.000198782,28.71612,0.10473205,0.5040955,0.48132285,0.18844303,0.12609027,inf,inf,inf,inf,1,1,1,1,2,0,2,1,2,1,1,1,0
57500000,57500000,804000,36.3215774,127.4117224,-0.005308155,0.02303595,0.21458817,0.00039837,6.51E-05,0,-0.002147933,0.023161413,0.07979068,-0.02181176,-0.001178325,-0.008305827,-0.011701867,-0.007640574,0.007254715,0.047178935,1.5651541,0.000198782,28.71612,0.1,0.46996108,0.47168264,0.17346375,0.12220182,inf,inf,inf,inf,1,1,1,1,2,0,2,1,2,1,1,1,0
58000000,58000000,804000,36.3215774,127.4117224,-0.004446659,0.030156026,0.21123765,0.00039837,6.51E-05,0,-0.000287314,0.02955406,0.08255502,-0.013349668,-0.001178325,-0.008305827,-0.011701867,-0.0600448,-0.09679243,0.04938617,1.5654678,0.000198782,28.71612,0.1,0.4808037,0.4748791,0.17838049,0.12348167,inf,inf,inf,inf,1,1,1,1,2,0,2,1,2,1,1,1,0
58500000,58500000,804000,36.3215774,127.4117224,-0.001025029,0.023683848,0.20417485,0.00039837,6.51E-05,0,0.011558021,0.02179046,0.08329336,-0.013738429,-0.001178325,-0.008305827,-0.011701867,-0.013676748,-0.066398196,0.020258127,1.5659412,0.000198782,28.71612,0.1,0.4524693,0.46998698,0.16624093,0.120392635,inf,inf,inf,inf,1,1,1,1,2,0,2,1,2,1,1,1,0
59000000,59000000,804000,36.3215774,127.4117224,0.005634927,0.017585073,0.19339901,0.00039837,6.51E-05,0,0.023791904,0.019641466,0.081301935,-0.0192939,-0.001178325,-0.008305827,-0.011701867,-0.02107623,0.004375302,-0.015503726,1.5662462,0.000198782,28.71612,0.1,0.46504208,0.4733907,0.17302142,0.122025706,inf,inf,inf,inf,1,1,1,1,2,0,2,1,2,1,1,1,0
59500000,59500000,804000,36.3215774,127.4117224,0.012217409,0.012342359,0.18340668,0.00039837,6.51E-05,0,0.03270129,0.016825229,0.075012185,-0.022635516,-0.001178325,-0.008305827,-0.011701867,-0.020225147,0.0739507,0.03832392,1.5665951,0.000198782,28.71612,0.1,0.4440119,0.4690291,0.16534251,0.11963809,inf,inf,inf,inf,1,1,1,1,2,0,2,1,2,1,1,1,0
60000000,60000000,804000,36.3215774,127.4117224,0.01889167,0.014381789,0.18205252,0.00039837,6.51E-05,0,0.041337788,0.0177661,0.08066826,-0.01027118,-0.001178325,-0.008305827,-0.011701867,0.019934002,-0.006509046,-0.012321397,1.5666134,0.000198782,28.71612,0.1,0.45786443,0.46831605,0.1725265,0.120973155,inf,inf,inf,inf,1,1,1,1,2,0,2,1,2,1,1,1,0
60500000,60500000,804000,36.3215774,127.4117224,0.02001955,0.015234544,0.17959577,0.00039837,6.51E-05,0,0.04023567,0.017022505,0.08125008,-0.006980804,-0.001178325,-0.008305827,-0.011701867,0.040369645,0.015332866,0.10394304,1.5665601,0.000198782,28.71612,0.10105139,0.4724035,0.47216895,0.179271,0.122803986,inf,inf,inf,inf,1,1,1,1,2,0,2,1,2,1,1,1,0
61000000,61000000,804000,36.3215774,127.4117224,0.022649856,0.006220083,0.18412139,0.00039837,6.51E-05,0,0.040820163,0.009427673,0.08197975,0.000948916,-0.001178325,-0.008305827,-0.011701867,0.016342059,-0.001780794,0.028819775,1.5665724,0.000198782,28.71612,0.1,0.4874691,0.47193328,0.18563351,0.12405447,inf,inf,inf,inf,1,1,1,1,2,0,2,1,2,1,1,1,0
61500000,61500000,804000,36.3215774,127.4117224,0.022829548,0.000420464,0.19338045,0.00039837,6.51E-05,0,0.04223854,0.006739886,0.08369217,0.009569889,-0.001178325,-0.008305827,-0.011701867,0.12125877,-0.009879339,0.057156194,1.5667506,0.000198782,28.71612,0.1,0.45903343,0.47182226,0.17223047,0.1217271,inf,inf,inf,inf,1,1,1,1,2,0,2,1,2,1,1,1,0
62000000,62000000,804000,36.3215774,127.4117224,0.028556103,-0.000201202,0.19135341,0.00039837,6.51E-05,0,0.04243774,0.001340702,0.0814516,0.001227958,-0.001178325,-0.008305827,-0.011701867,0.018581612,0.007278808,0.025247222,1.5666145,0.000198782,28.71612,0.1,0.47186753,0.471414,0.17757891,0.12283048,inf,inf,inf,inf,1,1,1,1,2,0,2,1,2,1,1,1,0
62500000,62500000,804000,36.3215774,127.4117224,0.030016074,0.002367055,0.19266224,0.00039837,6.51E-05,0,0.042469017,0.004747967,0.07635567,-0.001700063,-0.001178325,-0.008305827,-0.011701867,0.051991377,0.04929187,0.025603918,1.5666693,0.000198782,28.71612,0.1,0.48504722,0.47532973,0.18285212,0.12438698,inf,inf,inf,inf,1,1,1,1,2,0,2,1,2,1,1,1,0
63000000,63000000,804000,36.3215774,127.4117224,0.032506928,0.000274001,0.19599341,0.00039837,6.51E-05,0,0.045254108,-0.000529868,0.07405901,0.001348655,-0.001178325,-0.008305827,-0.011701867,0.046317283,-0.043564633,-0.06668176,1.5668391,0.000198782,28.71612,0.1,0.49856222,0.47499478,0.18808837,0.12535277,inf,inf,inf,inf,1,1,1,1,2,0,2,1,2,1,1,1,0
63500000,63500000,804000,36.3215774,127.4117224,0.03034833,-0.007582455,0.19184302,0.00039837,6.51E-05,0,0.040527422,-0.002946004,0.06623672,-0.007711036,-0.001178325,-0.008305827,-0.011701867,-0.04738946,0.03335932,0.056119632,1.5669225,0.000198782,28.71612,0.1,0.46624222,0.47027612,0.17325471,0.122166224,inf,inf,inf,inf,1,1,1,1,2,0,2,1,2,1,1,1,0
64000000,64000000,804000,36.3215774,127.4117224,0.028918406,-0.011791839,0.18672273,0.00039837,6.51E-05,0,0.032034636,-0.001560477,0.057207733,-0.015456459,-0.001178325,-0.008305827,-0.011701867,0.003687215,-0.006672235,0.023709608,1.5669193,0.000198782,28.71612,0.1,0.47797006,0.47410366,0.17821255,0.12360557,inf,inf,inf,inf,1,1,1,1,2,0,2,1,2,1,1,1,0
64500000,64500000,804000,36.3215774,127.4117224,0.024295593,-0.006790245,0.17456642,0.00039837,6.51E-05,0,0.023183834,0.004402434,0.046190575,-0.028304616,-0.001178325,-0.008305827,-0.011701867,0.02723342,0.028396204,-0.030025838,1.5666846,0.000198782,28.71612,0.1,0.49009,0.47774494,0.18321715,0.12495294,inf,inf,inf,inf,1,1,1,1,2,0,2,1,2,1,1,1,0
65000000,65000000,804000,36.3215774,127.4117224,0.022430938,-0.004628204,0.16577144,0.00039837,6.51E-05,0,0.023195643,0.010056742,0.04151268,-0.02614511,-0.001178325,-0.008305827,-0.011701867,-0.017652625,-0.001003009,-0.005342066,1.5666767,0.000198782,28.71612,0.1039976,0.50263023,0.4811908,0.18829052,0.1262199,inf,inf,inf,inf,1,1,1,1,2,0,2,1,2,1,1,1,0
65500000,65500000,804000,36.3215774,127.4117224,0.020198815,0.002555515,0.15588863,0.00039837,6.51E-05,0,0.02068053,0.022152178,0.032758363,-0.031450488,-0.001178325,-0.008305827,-0.011701867,-0.031775873,0.04941787,-0.06942357,1.5670178,0.000198782,28.71612,0.1,0.46894237,0.4756248,0.17331608,0.122768804,inf,inf,inf,inf,1,1,1,1,2,0,2,1,2,1,1,1,0
66000000,66000000,804000,36.3215774,127.4117224,0.023470305,0.007354745,0.13724107,0.00039837,6.51E-05,0,0.023132242,0.023223676,0.019808087,-0.04363762,-0.001178325,-0.008305827,-0.011701867,0.009631101,0.036633987,0.002636574,1.5671278,0.000198782,28.71612,0.10250488,0.4800834,0.47471833,0.17826742,0.12356032,inf,inf,inf,inf,1,1,1,1,2,0,2,1,2,1,1,1,0
66500000,66500000,804000,36.3215774,127.4117224,0.024659056,0.010998121,0.12013418,0.00039837,6.51E-05,0,0.020868521,0.025405139,0.004060832,-0.051836755,-0.001178325,-0.008305827,-0.011701867,-0.029119683,0.015387773,-0.07431208,1.5674926,0.000198782,28.71612,0.10897704,0.4917045,0.47820798,0.18330163,0.124873936,inf,inf,inf,inf,1,1,1,1,2,0,2,1,2,1,1,1,0
67000000,67000000,804000,36.3215774,127.4117224,0.023479683,0.010944866,0.10068379,0.00039837,6.51E-05,0,0.014384965,0.019161709,-0.008835636,-0.056263898,-0.001178325,-0.008305827,-0.011701867,0.014414599,0.031394623,-0.045030374,1.5673438,0.000198782,28.71612,0.1094639,0.5038343,0.4772623,0.18840577,0.12560447,inf,inf,inf,inf,1,1,1,1,2,0,2,1,2,1,1,1,0
67500000,67500000,804000,36.3215774,127.4117224,0.02004211,0.008978083,0.090841465,0.00039837,6.51E-05,0,0.005441177,0.017507331,-0.017460873,-0.048674062,-0.001178325,-0.008305827,-0.011701867,-0.031512935,-0.072002076,-0.02932269,1.567594,0.000198782,28.71612,0.1148727,0.4697699,0.47635278,0.17344813,0.12278419,inf,inf,inf,inf,1,1,1,1,2,0,2,1,2,1,1,1,0
68000000,68000000,804000,36.3215774,127.4117224,0.019974153,0.00598153,0.07857975,0.00039837,6.51E-05,0,0.006440523,0.018045748,-0.026734004,-0.04682479,-0.001178325,-0.008305827,-0.011701867,0.00425904,-0.000583645,-0.020945443,1.5673891,0.000198782,28.71612,0.11191499,0.48068252,0.47502312,0.17840171,0.12348123,inf,inf,inf,inf,1,1,1,1,2,0,2,1,2,1,1,1,0
68500000,68500000,804000,36.3215774,127.4117224,0.023066897,0.004696561,0.06435369,0.00039837,6.51E-05,0,0.003896005,0.014777324,-0.032026287,-0.044957437,-0.001178325,-0.008305827,-0.011701867,-0.039506517,-0.03745326,0.012796371,1.5667013,0.000198782,28.71612,0.11103918,0.49212548,0.4781264,0.18341152,0.1247216,inf,inf,inf,inf,1,1,1,1,2,0,2,1,2,1,1,1,0
69000000,69000000,804000,36.3215774,127.4117224,0.02048121,0.004405455,0.05234314,0.00039837,6.51E-05,0,-0.002272966,0.010105512,-0.028953306,-0.035729997,-0.001178325,-0.008305827,-0.011701867,-0.09260936,0.018226271,-0.06559677,1.567153,0.000198782,28.71612,0.11134903,0.5041148,0.481082,0.18845458,0.1259137,inf,inf,inf,inf,1,1,1,1,2,0,2,1,2,1,1,1,0
69500000,69500000,804000,36.3215774,127.4117224,0.017878026,0.006425391,0.0525744,0.00039837,6.51E-05,0,-0.003733724,0.011010888,-0.027621102,-0.023287227,-0.001178325,-0.008305827,-0.011701867,-0.000182219,0.016926117,0.036065463,1.5670251,0.000198782,28.71612,0.108510315,0.4699738,0.47514287,0.17347601,0.1224434,inf,inf,inf,inf,1,1,1,1,2,0,2,1,2,1,1,1,0
70000000,70000000,804000,36.3215774,127.4117224,0.011935215,0.007769799,0.040113192,0.00039837,6.51E-05,0,-0.007149986,0.011761971,-0.032579903,-0.0291638,-0.001178325,-0.008305827,-0.011701867,0.006283313,-0.028828748,-0.009396113,1.5667573,0.000198782,28.71612,0.10888915,0.4808114,0.4779367,0.17841306,0.1236731,inf,inf,inf,inf,1,1,1,1,2,0,2,1,2,1,1,1,0
70500000,70500000,804000,36.3215774,127.4117224,0.012480775,0.007125465,0.030114131,0.00039837,6.51E-05,0,-0.003353191,0.006327119,-0.033774048,-0.02716702,-0.001178325,-0.008305827,-0.011701867,-0.08147696,-0.034588046,0.002157874,1.5666703,0.000198782,28.71612,0.11041175,0.49219906,0.4764478,0.18341376,0.12437967,inf,inf,inf,inf,1,1,1,1,2,0,2,1,2,1,1,1,0
71000000,71000000,804000,36.3215774,127.4117224,0.012054038,0.007816695,0.024744568,0.00039837,6.51E-05,0,-0.003457618,0.007838836,-0.036735803,-0.024521414,-0.001178325,-0.008305827,-0.011701867,0.004388428,-0.015176006,-0.043539327,1.5662105,0.000198782,28.71612,0.10723029,0.5041522,0.47981864,0.18847664,0.1257236,inf,inf,inf,inf,1,1,1,1,2,0,2,1,2,1,1,1,0
71500000,71500000,804000,36.3215774,127.4117224,0.01893628,0.011561652,0.017160883,0.00039837,6.51E-05,0,0.004715111,0.00577523,-0.04116115,-0.025178334,-0.001178325,-0.008305827,-0.011701867,-0.002784385,0.001844814,-0.058487054,1.5658164,0.000198782,28.71612,0.10999169,0.47000647,0.47454184,0.17352565,0.12243499,inf,inf,inf,inf,1,1,1,1,2,0,2,1,2,1,1,1,0
72000000,72000000,804000,36.3215774,127.4117224,0.023539808,0.014334826,0.010538231,0.00039837,6.51E-05,0,0.013202466,0.005824182,-0.04114394,-0.020644855,-0.001178325,-0.008305827,-0.011701867,0.04854977,-0.05667052,0.004895962,1.5656527,0.000198782,28.71612,0.11118063,0.48082814,0.47356102,0.17844434,0.123268865,inf,inf,inf,inf,1,1,1,1,2,0,2,1,2,1,1,1,0
72500000,72500000,804000,36.3215774,127.4117224,0.029758923,0.012745199,0.00487295,0.00039837,6.51E-05,0,0.01431613,0.002920067,-0.037073206,-0.014958083,-0.001178325,-0.008305827,-0.011701867,-0.04856884,-0.012962679,-0.01916941,1.5654088,0.000198782,28.71612,0.105637,0.49220335,0.4769583,0.18342341,0.124613404,inf,inf,inf,inf,1,1,1,1,2,0,2,1,2,1,1,1,0
73000000,73000000,804000,36.3215774,127.4117224,0.02982184,0.011677331,-0.003448281,0.00039837,6.51E-05,0,0.013612093,0.000268893,-0.035899997,-0.015989779,-0.001178325,-0.008305827,-0.011701867,0.008518501,0.024045004,-0.02754107,1.5653132,0.000198782,28.71612,0.10308414,0.5041477,0.48051408,0.18847756,0.12596433,inf,inf,inf,inf,1,1,1,1,2,0,2,1,2,1,1,1,0
73500000,73500000,804000,36.3215774,127.4117224,0.024049172,0.010052403,-0.010275709,0.00039837,6.51E-05,0,0.005475293,0.000853332,-0.032423213,-0.013718971,-0.001178325,-0.008305827,-0.011701867,0.030905101,0.030189713,-0.041870397,1.5652678,0.000198782,28.71612,0.10202074,0.47000507,0.47099948,0.17348748,0.12212565,inf,inf,inf,inf,1,1,1,1,2,0,2,1,2,1,1,1,0
74000000,74000000,804000,36.3215774,127.4117224,0.019127317,0.008771028,-0.016492454,0.00039837,6.51E-05,0,-0.004559934,-0.001512768,-0.027920557,-0.009742111,-0.001178325,-0.008305827,-0.011701867,0.034497723,-0.026889201,-0.026052816,1.5653839,0.000198782,28.71612,0.10666724,0.48081967,0.47438082,0.17838655,0.12346295,inf,inf,inf,inf,1,1,1,1,2,0,2,1,2,1,1,1,0
74500000,74500000,804000,36.3215774,127.4117224,0.013573386,0.009436846,-0.010849861,0.00039837,6.51E-05,0,-0.014099713,-0.00114302,-0.022414725,0.002985743,-0.001178325,-0.008305827,-0.011701867,-0.08344567,0.041616872,0.009238719,1.5651369,0.000198782,28.71612,0.10791921,0.4921909,0.47759628,0.18337679,0.12473269,inf,inf,inf,inf,1,1,1,1,2,0,2,1,2,1,1,1,0
75000000,75000000,804000,36.3215774,127.4117224,0.004004968,0.010003945,-0.000667397,0.00039837,6.51E-05,0,-0.026862245,0.000844503,-0.016953534,0.012591132,-0.001178325,-0.008305827,-0.011701867,-0.004935886,-0.031761218,0.02685841,1.5647871,0.000198782,28.71612,0.101831995,0.50413203,0.48062468,0.18843777,0.1259374,inf,inf,inf,inf,1,1,1,1,2,0,2,1,2,1,1,1,0
75500000,75500000,804000,36.3215774,127.4117224,0.000817938,0.005953028,0.003859766,0.00039837,6.51E-05,0,-0.031459823,0.004397761,-0.007251788,0.017705183,-0.001178325,-0.008305827,-0.011701867,-0.1032951,0.013607341,0.060296614,1.5647347,0.000198782,28.71612,0.1,0.46999696,0.4747785,0.1734531,0.12247463,inf,inf,inf,inf,1,1,1,1,2,0,2,1,2,1,1,1,0
76000000,76000000,804000,36.3215774,127.4117224,-0.004115582,0.008786097,0.005216557,0.00039837,6.51E-05,0,-0.037132654,0.008662575,-0.002006831,0.015900673,-0.001178325,-0.008305827,-0.011701867,-0.044091918,-0.007396072,0.04193652,1.5647025,0.000198782,28.71612,0.1,0.4808095,0.47336042,0.17835264,0.12319456,inf,inf,inf,inf,1,1,1,1,2,0,2,1,2,1,1,1,0
76500000,76500000,804000,36.3215774,127.4117224,-0.008970675,0.012384665,0.00685639,0.00039837,6.51E-05,0,-0.0416279,0.016132627,-0.006927193,0.006234182,-0.001178325,-0.008305827,-0.011701867,-0.015292862,0.10017151,0.006236136,1.5649573,0.000198782,28.71612,0.1,0.4921789,0.47674707,0.18336861,0.12454416,inf,inf,inf,inf,1,1,1,1,2,0,2,1,2,1,1,1,0
77000000,77000000,804000,36.3215774,127.4117224,-0.006235831,0.01729895,-0.003006705,0.00039837,6.51E-05,0,-0.035898313,0.01900449,-0.009559221,-0.00550059,-0.001178325,-0.008305827,-0.011701867,-0.042661782,-0.008152634,0.050016675,1.5649749,0.000198782,28.71612,0.1,0.5041222,0.4802459,0.18844394,0.1258881,inf,inf,inf,inf,1,1,1,1,2,0,2,1,2,1,1,1,0
77500000,77500000,804000,36.3215774,127.4117224,-0.007149991,0.018042376,-0.00130395,0.00039837,6.51E-05,0,-0.027067311,0.022056242,-0.004354635,0.003024938,-0.001178325,-0.008305827,-0.011701867,0.005758214,0.018397579,0.03804918,1.5650333,0.000198782,28.71612,0.10089395,0.46999034,0.47499642,0.17345874,0.12257227,inf,inf,inf,inf,1,1,1,1,2,0,2,1,2,1,1,1,0
78000000,78000000,804000,36.3215774,127.4117224,-0.008688192,0.017591028,0.001565995,0.00039837,6.51E-05,0,-0.01763341,0.022339249,0.00328465,0.010040469,-0.001178325,-0.008305827,-0.011701867,0.049924117,-0.016159551,-0.001973472,1.5646077,0.000198782,28.71612,0.1,0.4808049,0.47817755,0.1783667,0.123868726,inf,inf,inf,inf,1,1,1,1,2,0,2,1,2,1,1,1,0
78500000,78500000,804000,36.3215774,127.4117224,-0.002924756,0.016094577,0.01205733,0.00039837,6.51E-05,0,-0.002679159,0.019527141,0.009183866,0.019590376,-0.001178325,-0.008305827,-0.011701867,0.07177411,-0.023178639,0.07596425,1.5645578,0.000198782,28.71612,0.10044967,0.49217552,0.48121536,0.18334079,0.12511052,inf,inf,inf,inf,1,1,1,1,2,0,2,1,2,1,1,1,0
79000000,79000000,804000,36.3215774,127.4117224,0.003083932,0.022509877,0.018438902,0.00039837,6.51E-05,0,0.004134689,0.025442267,0.016298303,0.021964366,-0.001178325,-0.008305827,-0.011701867,-0.002782974,0.032269593,0.026312655,1.5647075,0.000198782,28.71612,0.1,0.50411433,0.47958925,0.18838969,0.12573276,inf,inf,inf,inf,1,1,1,1,2,0,2,1,2,1,1,1,0
79500000,79500000,804000,36.3215774,127.4117224,0.000423669,0.014185916,0.033409685,0.00039837,6.51E-05,0,0.002625937,0.01933504,0.021216476,0.027451176,-0.001178325,-0.008305827,-0.011701867,0.004357418,0.032090355,-0.027596949,1.564408,0.000198782,28.71612,0.1,0.46998668,0.47421524,0.17342837,0.122408494,inf,inf,inf,inf,1,1,1,1,2,0,2,1,2,1,1,1,0
80000000,80000000,804000,36.3215774,127.4117224,-0.001560939,0.008216457,0.038277995,0.00039837,6.51E-05,0,0.005606988,0.018524304,0.021970533,0.021216374,-0.001178325,-0.008305827,-0.011701867,-0.04157188,0.0389316,0.002539716,1.5643913,0.000198782,28.71612,0.1,0.48079985,0.47300488,0.17835878,0.12318057,inf,inf,inf,inf,1,1,1,1,2,0,2,1,2,1,1,1,0
80500000,80500000,804000,36.3215774,127.4117224,-0.000991997,0.00783485,0.046251945,0.00039837,6.51E-05,0,0.006920821,0.023517199,0.021011041,0.01924416,-0.001178325,-0.008305827,-0.011701867,0.07551589,-0.010981235,0.06738211,1.5640688,0.000198782,28.71612,0.1,0.4921716,0.4764163,0.18336555,0.12453091,inf,inf,inf,inf,1,1,1,1,2,0,2,1,2,1,1,1,0
81000000,81000000,804000,36.3215774,127.4117224,-0.000330933,0.010342459,0.05289083,0.00039837,6.51E-05,0,0.002924739,0.024451809,0.029459264,0.023772327,-0.001178325,-0.008305827,-0.011701867,0.062182467,0.06461151,0.00294391,1.5641955,0.000198782,28.71612,0.1,0.50411254,0.48011136,0.18841004,0.12591821,inf,inf,inf,inf,1,1,1,1,2,0,2,1,2,1,1,1,0
81500000,81500000,804000,36.3215774,127.4117224,0.006321471,0.00946254,0.064838335,0.00039837,6.51E-05,0,0.005551299,0.018761747,0.031145237,0.024834339,-0.001178325,-0.008305827,-0.011701867,-0.04999501,-0.030751513,-0.029326415,1.5643121,0.000198782,28.71612,0.1,0.46998483,0.4706534,0.17344399,0.12208917,inf,inf,inf,inf,1,1,1,1,2,0,2,1,2,1,1,1,0
82000000,82000000,804000,36.3215774,127.4117224,0.014280103,0.011551345,0.07042625,0.00039837,6.51E-05,0,0.008030826,0.014087306,0.0388152,0.025075428,-0.001178325,-0.008305827,-0.011701867,-0.052245483,0.028561423,0.07958616,1.5641211,0.000198782,28.71612,0.1,0.4807988,0.46997535,0.17834207,0.1229507,inf,inf,inf,inf,1,1,1,1,2,0,2,1,2,1,1,1,0
82500000,82500000,804000,36.3215774,127.4117224,0.007195392,0.008518982,0.07147952,0.00039837,6.51E-05,0,-0.000502887,0.010177904,0.039283384,0.017398404,-0.001178325,-0.008305827,-0.011701867,0.00456893,-0.052831255,0.024248844,1.5637062,0.000198782,28.71612,0.1,0.45482254,0.46606103,0.16814129,0.12034397,inf,inf,inf,inf,1,1,1,1,2,0,2,1,2,1,1,1,0
83000000,83000000,804000,36.3215774,127.4117224,0.003976105,0.007168297,0.076117896,0.00039837,6.51E-05,0,0.004924409,0.006141949,0.045980375,0.020831265,-0.001178325,-0.008305827,-0.011701867,7.01E-05,0.052531924,-0.005573034,1.5637106,0.000198782,28.71612,0.1,0.4673666,0.47017112,0.17451149,0.122088335,inf,inf,inf,inf,1,1,1,1,2,0,2,1,2,1,1,1,0
83500000,83500000,804000,36.3215774,127.4117224,0.00773973,0.004880158,0.07890729,0.00039837,6.51E-05,0,0.016025618,0.006394131,0.046361804,0.015375316,-0.001178325,-0.008305827,-0.011701867,0.041888174,0.00010835,-0.06068963,1.5634569,0.000198782,28.71612,0.1,0.48053807,0.47429666,0.18062444,0.12375751,inf,inf,inf,inf,1,1,1,1,2,0,2,1,2,1,1,1,0
84000000,84000000,804000,36.3215774,127.4117224,0.015117309,0.001786877,0.08518864,0.00039837,6.51E-05,0,0.021153735,0.006002147,0.05183201,0.021018822,-0.001178325,-0.008305827,-0.011701867,0.05352709,-0.001140172,0.06923824,1.5633916,0.000198782,28.71612,0.1,0.49425912,0.47381666,0.18652092,0.12474901,inf,inf,inf,inf,1,1,1,1,2,0,2,1,2,1,1,1,0
84500000,84500000,804000,36.3215774,127.4117224,0.011516205,-0.0028194,0.092238255,0.00039837,6.51E-05,0,0.015230173,0.00302301,0.057349164,0.023172691,-0.001178325,-0.008305827,-0.011701867,-0.011718362,0.036374,0.05095079,1.5633614,0.000198782,28.71612,0.1,0.46355549,0.46929392,0.17258532,0.12170738,inf,inf,inf,inf,1,1,1,1,2,0,2,1,2,1,1,1,0
85000000,85000000,804000,36.3215774,127.4117224,0.00564983,-0.00270544,0.09733722,0.00039837,6.51E-05,0,0.014135566,0.001885784,0.054526784,0.01645395,-0.001178325,-0.008305827,-0.011701867,0.050806656,-0.04142714,0.06983149,1.5632952,0.000198782,28.71612,0.1,0.4755101,0.47296333,0.17780499,0.12316564,inf,inf,inf,inf,1,1,1,1,2,0,2,1,2,1,1,1,0
