timestamp,timestamp_sample,device_id,x,y,z,temperature,error_count,samples
972000,972000,1310988,-0.0037284256,-0.0010652645,-0.008522116,14.819214,0,1
1972000,1972000,1310988,-0.00479369,0.002130529,-0.00479369,14.819214,0,1
2972000,2972000,1310988,0.0005326322,-0.0010652645,0.0005326322,14.819214,0,1
3972000,3972000,1310988,-0.0053263223,0.0,-0.004261058,14.819214,0,1
4972000,4972000,1310988,-0.002130529,0.007989483,-0.004261058,14.819214,0,1
5972000,5972000,1310988,-0.0010652645,-0.0010652645,0.0005326322,14.819214,0,1
6972000,6972000,1310988,0.0005326322,-0.0037284256,-0.006924219,14.819214,0,1
7972000,7972000,1310988,-0.0058589545,-0.0015978967,0.0031957934,14.819214,0,1
8972000,8972000,1310988,0.0,-0.0026631611,-0.0005326322,14.819214,0,1
9972000,9972000,1310988,-0.002130529,0.00479369,0.0063915867,14.819214,0,1
10972000,10972000,1310988,-0.0005326322,0.009054748,0.002130529,14.819214,0,1
11972000,11972000,1310988,0.0026631611,0.00479369,0.0005326322,14.819214,0,1
12972000,12972000,1310988,-0.0026631611,-0.0037284256,-0.0015978967,14.819214,0,1
13972000,13972000,1310988,-0.0015978967,0.0015978967,-0.002130529,14.819214,0,1
14972000,14972000,1310988,0.0037284256,-0.008522116,-0.00479369,14.819214,0,1
15972000,15972000,1310988,-0.0005326322,0.0005326322,0.0005326322,14.819214,0,1
16972000,16972000,1310988,-0.0005326322,0.0026631611,0.0031957934,14.819214,0,1
17972000,17972000,1310988,0.0,-0.004261058,0.0010652645,14.819214,0,1
18972000,18972000,1310988,0.0010652645,-0.0005326322,-0.0010652645,14.819214,0,1
19972000,19972000,1310988,0.0010652645,-0.0015978967,-0.0031957934,14.819214,0,1
20972000,20972000,1310988,-0.0010652645,-0.009054748,-0.0053263223,14.819214,0,1
21972000,21972000,1310988,-0.0026631611,-0.0005326322,-0.00479369,14.819214,0,1
22972000,22972000,1310988,0.0005326322,0.0053263223,-0.0005326322,14.819214,0,1
23972000,23972000,1310988,0.0015978967,0.0,0.0026631611,14.819214,0,1
24972000,24972000,1310988,0.0026631611,-0.002130529,-0.0005326322,14.819214,0,1
25972000,25972000,1310988,-0.0010652645,0.002130529,-0.0010652645,14.819214,0,1
26972000,26972000,1310988,-0.0005326322,-0.0015978967,0.004261058,14.819214,0,1
27972000,27972000,1310988,-0.0010652645,-0.0053263223,0.0063915867,14.819214,0,1
28972000,28972000,1310988,-0.0010652645,0.0026631611,0.0010652645,14.819214,0,1
29972000,29972000,1310988,-0.0015978967,-0.0010652645,-0.002130529,14.819214,0,1
30972000,30972000,1310988,-0.0010652645,0.0031957934,0.0005326322,14.819214,0,1
31972000,31972000,1310988,0.0026631611,0.0063915867,0.00479369,14.819214,0,1
32972000,32972000,1310988,0.0005326322,0.0058589545,0.0015978967,14.819214,0,1
33972000,33972000,1310988,-0.0031957934,0.0015978967,0.0026631611,14.819214,0,1
34972000,34972000,1310988,0.0,-0.0005326322,-0.0005326322,14.819214,0,1
35972000,35972000,1310988,0.00479369,-0.0063915867,-0.0005326322,14.819214,0,1
36972000,36972000,1310988,0.0005326322,-0.0026631611,0.0058589545,14.819214,0,1
37972000,37972000,1310988,-0.00479369,0.0005326322,0.002130529,14.819214,0,1
38972000,38972000,1310988,-0.002130529,0.0026631611,0.0010652645,14.819214,0,1
39972000,39972000,1310988,0.0015978967,-0.0005326322,-0.0058589545,14.819214,0,1
40972000,40972000,1310988,0.0005326322,0.0015978967,0.0,14.819214,0,1
41972000,41972000,1310988,0.0026631611,0.0026631611,0.0,14.819214,0,1
42972000,42972000,1310988,-0.002130529,0.002130529,0.0037284256,14.819214,0,1
43972000,43972000,1310988,-0.0015978967,-0.0015978967,0.0031957934,14.819214,0,1
44972000,44972000,1310988,-0.0053263223,0.008522116,0.0058589545,14.819214,0,1
45972000,45972000,1310988,0.0058589545,0.0010652645,0.0037284256,14.819214,0,1
46972000,46972000,1310988,0.0031957934,0.0037284256,0.0015978967,14.819214,0,1
47972000,47972000,1310988,-0.002130529,0.002130529,-0.0031957934,14.819214,0,1
48972000,48972000,1310988,-0.0010652645,0.0,0.004261058,14.819214,0,1
49972000,49972000,1310988,0.0010652645,-0.004261058,0.00479369,14.819214,0,1
50972000,50972000,1310988,-0.0005326322,0.0037284256,-0.0031957934,14.819214,0,1
51972000,51972000,1310988,0.0,0.0031957934,0.0005326322,14.819214,0,1
52972000,52972000,1310988,0.0010652645,0.013315806,-0.002130529,14.819214,0,1
53972000,53972000,1310988,-0.0015978967,0.0,0.004261058,14.819214,0,1
54972000,54972000,1310988,0.004261058,-0.0037284256,-0.0015978967,14.819214,0,1
55972000,55972000,1310988,-0.0026631611,0.002130529,0.0010652645,14.819214,0,1
56972000,56972000,1310988,-0.0010652645,-0.0005326322,0.00479369,14.819214,0,1
57972000,57972000,1310988,-0.007456851,0.006924219,-0.004261058,14.819214,0,1
58972000,58972000,1310988,-0.0037284256,0.0026631611,0.0026631611,14.819214,0,1
59972000,59972000,1310988,-0.0037284256,0.00479369,0.00479369,14.819214,0,1
60972000,60972000,1310988,-0.0015978967,0.0063915867,0.002130529,14.819214,0,1
61972000,61972000,1310988,-0.0031957934,-0.0010652645,0.00479369,14.819214,0,1
62972000,62972000,1310988,-0.002130529,0.0005326322,-0.0005326322,14.819214,0,1
63972000,63972000,1310988,0.0005326322,0.0005326322,0.0005326322,14.819214,0,1
64972000,64972000,1310988,-0.006924219,-0.0010652645,0.0015978967,14.819214,0,1
65972000,65972000,1310988,-0.0026631611,0.0,0.004261058,14.819214,0,1
66972000,66972000,1310988,0.002130529,-0.0037284256,-0.0026631611,14.819214,0,1
67972000,67972000,1310988,-0.0005326322,-0.002130529,0.0,14.819214,0,1
68972000,68972000,1310988,0.002130529,0.0005326322,0.0026631611,14.819214,0,1
69972000,69972000,1310988,-0.0005326322,0.0005326322,0.0031957934,14.819214,0,1
70972000,70972000,1310988,-0.0005326322,0.004261058,0.0015978967,14.819214,0,1
71972000,71972000,1310988,-0.0031957934,0.0015978967,0.0026631611,14.819214,0,1
72972000,72972000,1310988,-0.0063915867,0.004261058,0.0037284256,14.819214,0,1
73972000,73972000,1310988,-0.010120012,0.0063915867,-0.0026631611,14.819214,0,1
74972000,74972000,1310988,0.0058589545,0.0026631611,0.0015978967,14.819214,0,1
75972000,75972000,1310988,0.0026631611,0.0005326322,-0.0005326322,14.819214,0,1
76972000,76972000,1310988,0.0015978967,-0.009054748,-0.011717909,14.819214,0,1
77972000,77972000,1310988,-0.0015978967,0.0005326322,-0.0031957934,14.819214,0,1
78972000,78972000,1310988,-0.0005326322,-0.006924219,0.00479369,14.819214,0,1
79972000,79972000,1310988,-0.0037284256,0.00479369,-0.0005326322,14.819214,0,1
80972000,80972000,1310988,0.0010652645,0.0010652645,-0.009054748,14.819214,0,1
81972000,81972000,1310988,0.008522116,-0.0005326322,0.0005326322,14.819214,0,1
82972000,82972000,1310988,-0.0005326322,0.0,-0.007989483,14.819214,0,1
83972000,83972000,1310988,0.004261058,-0.0005326322,0.0026631611,14.819214,0,1
84972000,84972000,1310988,-0.00479369,0.0,-0.0031957934,14.819214,0,1
85972000,85972000,1310988,0.004261058,-0.0053263223,0.0,14.819214,0,1
86972000,86972000,1310988,0.002130529,-0.0026631611,-0.0037284256,14.819214,0,1
87972000,87972000,1310988,0.004261058,0.007989483,0.00479369,14.819214,0,1
88972000,88972000,1310988,-0.0037284256,-0.0010652645,0.0026631611,14.819214,0,1
89972000,89972000,1310988,0.0026631611,0.0037284256,-0.0026631611,14.819214,0,1
90972000,90972000,1310988,0.0031957934,0.0005326322,0.0026631611,14.819214,0,1
91972000,91972000,1310988,-0.0031957934,-0.0026631611,0.0058589545,14.819214,0,1
92972000,92972000,1310988,-0.004261058,-0.004261058,-0.00479369,14.819214,0,1
93972000,93972000,1310988,0.0005326322,0.0010652645,0.004261058,14.819214,0,1
94972000,94972000,1310988,0.008522116,0.002130529,0.0026631611,14.819214,0,1
95972000,95972000,1310988,0.002130529,-0.0010652645,0.0,14.819214,0,1
96972000,96972000,1310988,0.0010652645,0.002130529,0.00479369,14.819214,0,1
97972000,97972000,1310988,0.0026631611,-0.0005326322,-0.00479369,14.819214,0,1
98972000,98972000,1310988,0.0053263223,-0.0005326322,0.0010652645,14.819214,0,1
99972000,99972000,1310988,0.0015978967,-0.0010652645,0.0026631611,14.819214,0,1
100972000,100972000,1310988,-0.0005326322,0.0015978967,0.0015978967,14.819214,0,1
101972000,101972000,1310988,-0.0015978967,0.0010652645,-0.0037284256,14.819214,0,1
102972000,102972000,1310988,-0.0026631611,-0.0005326322,0.0037284256,14.819214,0,1
103972000,103972000,1310988,0.0037284256,-0.0031957934,0.0010652645,14.819214,0,1
104972000,104972000,1310988,0.0005326322,-0.00479369,-0.010120012,14.819214,0,1
105972000,105972000,1310988,-0.004261058,0.0058589545,0.0015978967,14.819214,0,1
106972000,106972000,1310988,-0.0015978967,0.002130529,-0.0010652645,14.819214,0,1
107972000,107972000,1310988,-0.0015978967,-0.0026631611,0.0026631611,14.819214,0,1
108972000,108972000,1310988,-0.0063915867,0.0037284256,0.0015978967,14.819214,0,1
109972000,109972000,1310988,0.0,0.0005326322,0.00479369,14.819214,0,1
110972000,110972000,1310988,-0.0026631611,0.002130529,-0.0005326322,14.819214,0,1
111972000,111972000,1310988,0.0005326322,0.0026631611,-0.0010652645,14.819214,0,1
112972000,112972000,1310988,0.0053263223,0.0053263223,0.0031957934,14.819214,0,1
113972000,113972000,1310988,0.00479369,0.0005326322,-0.0005326322,14.819214,0,1
114972000,114972000,1310988,0.002130529,0.0,0.002130529,14.819214,0,1
115972000,115972000,1310988,-0.0053263223,0.0010652645,0.0053263223,14.819214,0,1
116972000,116972000,1310988,0.0053263223,-0.0010652645,-0.0026631611,14.819214,0,1
117972000,117972000,1310988,0.0063915867,0.0053263223,0.0,14.819214,0,1
118972000,118972000,1310988,-0.002130529,0.0015978967,0.0010652645,14.819214,0,1
119972000,119972000,1310988,0.0015978967,-0.00479369,-0.00479369,14.819214,0,1
120972000,120972000,1310988,-0.0037284256,0.0026631611,-0.00479369,14.819214,0,1
121972000,121972000,1310988,-0.0010652645,-0.0031957934,0.0005326322,14.819214,0,1
122972000,122972000,1310988,-0.0010652645,-0.002130529,0.0010652645,14.819214,0,1
123972000,123972000,1310988,0.002130529,0.0010652645,0.0063915867,14.819214,0,1
124972000,124972000,1310988,0.008522116,0.0010652645,0.0005326322,14.819214,0,1
125972000,125972000,1310988,0.0037284256,0.0,0.0005326322,14.819214,0,1
126972000,126972000,1310988,0.0005326322,0.0,0.0015978967,14.819214,0,1
127972000,127972000,1310988,0.0026631611,-0.007456851,-0.0026631611,14.819214,0,1
128972000,128972000,1310988,-0.0010652645,0.0026631611,0.0026631611,14.819214,0,1
129972000,129972000,1310988,0.0053263223,0.0,-0.0026631611,14.819214,0,1
130972000,130972000,1310988,0.002130529,-0.0005326322,0.002130529,14.819214,0,1
131972000,131972000,1310988,-0.006924219,-0.0037284256,0.0015978967,14.819214,0,1
132972000,132972000,1310988,0.0058589545,0.0026631611,0.0037284256,14.819214,0,1
133972000,133972000,1310988,0.0010652645,0.004261058,0.0037284256,14.819214,0,1
134972000,134972000,1310988,0.0015978967,-0.0010652645,0.0037284256,14.819214,0,1
135972000,135972000,1310988,0.0015978967,-0.0010652645,-0.002130529,14.819214,0,1
136972000,136972000,1310988,-0.0010652645,-0.00479369,0.0005326322,14.819214,0,1
137972000,137972000,1310988,-0.0010652645,0.00479369,-0.0031957934,14.819214,0,1
138972000,138972000,1310988,-0.0005326322,0.00479369,0.0015978967,14.819214,0,1
139972000,139972000,1310988,0.0058589545,0.0015978967,0.0005326322,14.819214,0,1
140972000,140972000,1310988,0.0015978967,-0.0026631611,0.00479369,14.819214,0,1
141972000,141972000,1310988,0.0,-0.0015978967,0.006924219,14.819214,0,1
142972000,142972000,1310988,0.0015978967,-0.007456851,0.0015978967,14.819214,0,1
143972000,143972000,1310988,0.0005326322,0.00479369,-0.0005326322,14.819214,0,1
144972000,144972000,1310988,-0.0031957934,-0.002130529,0.0010652645,14.819214,0,1
145972000,145972000,1310988,0.0037284256,-0.0031957934,0.00479369,14.819214,0,1
146972000,146972000,1310988,0.002130529,-0.004261058,0.0010652645,14.819214,0,1
147972000,147972000,1310988,0.0,0.0015978967,0.0005326322,14.819214,0,1
148972000,148972000,1310988,-0.0005326322,-0.007989483,0.00479369,14.819214,0,1
149972000,149972000,1310988,0.002130529,0.002130529,-0.004261058,14.819214,0,1
150972000,150972000,1310988,0.0053263223,0.0015978967,-0.0015978967,14.819214,0,1
151972000,151972000,1310988,0.0026631611,-0.0026631611,-0.0015978967,14.819214,0,1
152972000,152972000,1310988,0.002130529,0.004261058,0.0010652645,14.819214,0,1
153972000,153972000,1310988,0.0005326322,0.0026631611,0.0031957934,14.819214,0,1
154972000,154972000,1310988,-0.0026631611,-0.002130529,0.0031957934,14.819214,0,1
155972000,155972000,1310988,-0.002130529,-0.007456851,-0.0015978967,14.819214,0,1
156972000,156972000,1310988,0.0010652645,-0.0005326322,0.002130529,14.819214,0,1
157972000,157972000,1310988,-0.0053263223,-0.00479369,0.009054748,14.819214,0,1
158972000,158972000,1310988,0.0010652645,-0.006924219,-0.0026631611,14.819214,0,1
159972000,159972000,1310988,0.004261058,-0.0031957934,-0.0015978967,14.819214,0,1
160972000,160972000,1310988,-0.0031957934,0.0010652645,0.0037284256,14.819214,0,1
161972000,161972000,1310988,0.0010652645,0.0031957934,0.004261058,14.819214,0,1
162972000,162972000,1310988,-0.0037284256,-0.0005326322,-0.00479369,14.819214,0,1
163972000,163972000,1310988,-0.00479369,-0.0005326322,0.0015978967,14.819214,0,1
164972000,164972000,1310988,-0.0015978967,0.0,0.0015978967,14.819214,0,1
165972000,165972000,1310988,-0.0037284256,-0.0015978967,-0.0026631611,14.819214,0,1
166972000,166972000,1310988,0.0010652645,-0.0010652645,0.002130529,14.819214,0,1
167972000,167972000,1310988,0.0,-0.0015978967,-0.0031957934,14.819214,0,1
168972000,168972000,1310988,-0.0031957934,0.00479369,-0.002130529,14.819214,0,1
169972000,169972000,1310988,-0.0005326322,-0.0010652645,-0.0010652645,14.819214,0,1
170972000,170972000,1310988,0.013315806,-0.0053263223,0.0026631611,14.819214,0,1
171972000,171972000,1310988,0.002130529,0.0010652645,0.0026631611,14.819214,0,1
172972000,172972000,1310988,0.0,-0.0031957934,0.0026631611,14.819214,0,1
173972000,173972000,1310988,0.0026631611,0.004261058,0.004261058,14.819214,0,1
174972000,174972000,1310988,0.0005326322,0.0037284256,-0.0031957934,14.819214,0,1
175972000,175972000,1310988,0.0,0.0026631611,0.0005326322,14.819214,0,1
176972000,176972000,1310988,0.0,0.0058589545,0.0010652645,14.819214,0,1
177972000,177972000,1310988,-0.00479369,0.0031957934,0.0005326322,14.819214,0,1
178972000,178972000,1310988,0.0015978967,-0.0015978967,0.0005326322,14.819214,0,1
179972000,179972000,1310988,-0.0010652645,0.0010652645,0.0037284256,14.819214,0,1
180972000,180972000,1310988,0.002130529,0.0026631611,-0.0010652645,14.819214,0,1
181972000,181972000,1310988,-0.0063915867,0.0026631611,0.0,14.819214,0,1
182972000,182972000,1310988,-0.002130529,-0.0026631611,0.0,14.819214,0,1
183972000,183972000,1310988,0.0015978967,-0.0015978967,0.004261058,14.819214,0,1
184972000,184972000,1310988,-0.0010652645,0.0026631611,0.002130529,14.819214,0,1
185972000,185972000,1310988,0.0,0.0,-0.004261058,14.819214,0,1
186972000,186972000,1310988,0.0031957934,0.0015978967,-0.0037284256,14.819214,0,1
187972000,187972000,1310988,-0.0015978967,-0.0010652645,0.0015978967,14.819214,0,1
188972000,188972000,1310988,0.0026631611,-0.010120012,0.0026631611,14.819214,0,1
189972000,189972000,1310988,-0.0053263223,0.002130529,-0.0010652645,14.819214,0,1
190972000,190972000,1310988,0.0026631611,-0.00479369,0.0063915867,14.819214,0,1
191972000,191972000,1310988,0.002130529,0.0031957934,-0.004261058,14.819214,0,1
192972000,192972000,1310988,0.0058589545,-0.002130529,0.0015978967,14.819214,0,1
193972000,193972000,1310988,0.0010652645,-0.0026631611,0.0005326322,14.819214,0,1
194972000,194972000,1310988,0.0031957934,-0.0063915867,0.007456851,14.819214,0,1
195972000,195972000,1310988,-0.0037284256,-0.002130529,0.002130529,14.819214,0,1
196972000,196972000,1310988,-0.004261058,0.0015978967,0.0,14.819214,0,1
197972000,197972000,1310988,0.004261058,-0.0026631611,-0.0010652645,14.819214,0,1
198972000,198972000,1310988,0.002130529,-0.004261058,0.0037284256,14.819214,0,1
199972000,199972000,1310988,0.0031957934,0.004261058,-0.0026631611,14.819214,0,1
200972000,200972000,1310988,-0.0015978967,0.0,0.0015978967,14.819214,0,1
201972000,201972000,1310988,-0.0026631611,-0.0031957934,-0.0005326322,14.819214,0,1
202972000,202972000,1310988,0.0053263223,0.0010652645,0.0010652645,14.819214,0,1
203972000,203972000,1310988,-0.0037284256,-0.0015978967,0.006924219,14.819214,0,1
204972000,204972000,1310988,0.008522116,-0.0026631611,0.0026631611,14.819214,0,1
205972000,205972000,1310988,-0.0015978967,0.0005326322,0.006924219,14.819214,0,1
206972000,206972000,1310988,-0.0010652645,0.0,-0.0037284256,14.819214,0,1
207972000,207972000,1310988,0.0037284256,0.0015978967,-0.0037284256,14.819214,0,1
208972000,208972000,1310988,-0.0026631611,-0.00479369,0.0015978967,14.819214,0,1
209972000,209972000,1310988,0.004261058,-0.00479369,0.0005326322,14.819214,0,1
210972000,210972000,1310988,0.009054748,0.0031957934,-0.002130529,14.819214,0,1
211972000,211972000,1310988,0.00479369,-0.0015978967,-0.0037284256,14.819214,0,1
212972000,212972000,1310988,-0.00479369,-0.0037284256,0.0026631611,14.819214,0,1
213972000,213972000,1310988,0.0,0.0010652645,-0.0005326322,14.819214,0,1
214972000,214972000,1310988,0.0,-0.002130529,-0.0010652645,14.819214,0,1
215972000,215972000,1310988,-0.004261058,0.0005326322,-0.004261058,14.819214,0,1
216972000,216972000,1310988,0.0,-0.0063915867,-0.0015978967,14.819214,0,1
217972000,217972000,1310988,0.010120012,0.0,0.008522116,14.819214,0,1
218972000,218972000,1310988,-0.00479369,0.0015978967,0.0031957934,14.819214,0,1
219972000,219972000,1310988,0.00479369,0.0031957934,-0.002130529,14.819214,0,1
220972000,220972000,1310988,0.0037284256,-0.0010652645,0.002130529,14.819214,0,1
221972000,221972000,1310988,0.0031957934,0.0026631611,-0.0058589545,14.819214,0,1
222972000,222972000,1310988,0.0,0.0015978967,0.0058589545,14.819214,0,1
223972000,223972000,1310988,0.004261058,0.0,0.010652645,14.819214,0,1
224972000,224972000,1310988,-0.0005326322,-0.004261058,0.0005326322,14.819214,0,1
225972000,225972000,1310988,0.007989483,-0.0053263223,0.0005326322,14.819214,0,1
226972000,226972000,1310988,-0.0010652645,0.0,0.0005326322,14.819214,0,1
227972000,227972000,1310988,0.0058589545,0.004261058,0.0015978967,14.819214,0,1
228972000,228972000,1310988,-0.0037284256,0.0,0.0015978967,14.819214,0,1
229972000,229972000,1310988,-0.0026631611,-0.002130529,0.0010652645,14.819214,0,1
230972000,230972000,1310988,-0.0015978967,0.0031957934,0.0005326322,14.819214,0,1
231972000,231972000,1310988,0.0,0.002130529,0.0,14.819214,0,1
232972000,232972000,1310988,-0.0031957934,-0.0010652645,-0.0010652645,14.819214,0,1
233972000,233972000,1310988,-0.0010652645,-0.0026631611,-0.0010652645,14.819214,0,1
234972000,234972000,1310988,0.0053263223,0.002130529,-0.0010652645,14.819214,0,1
235972000,235972000,1310988,0.002130529,0.0015978967,0.0026631611,14.819214,0,1
236972000,236972000,1310988,0.0010652645,-0.0058589545,0.0005326322,14.819214,0,1
237972000,237972000,1310988,0.0010652645,-0.002130529,0.0015978967,14.819214,0,1
238972000,238972000,1310988,0.0037284256,0.0,-0.006924219,14.819214,0,1
239972000,239972000,1310988,0.0005326322,-0.0031957934,0.0015978967,14.819214,0,1
240972000,240972000,1310988,0.0005326322,0.0010652645,-0.0026631611,14.819214,0,1
241972000,241972000,1310988,0.0,-0.0005326322,0.002130529,14.819214,0,1
242972000,242972000,1310988,-0.0015978967,-0.0037284256,0.0005326322,14.819214,0,1
243972000,243972000,1310988,0.00479369,-0.0015978967,0.0,14.819214,0,1
244972000,244972000,1310988,-0.004261058,0.0058589545,-0.004261058,14.819214,0,1
245972000,245972000,1310988,0.0063915867,-0.0053263223,0.0026631611,14.819214,0,1
246972000,246972000,1310988,-0.002130529,0.0026631611,0.0,14.819214,0,1
247972000,247972000,1310988,0.0010652645,0.0005326322,-0.002130529,14.819214,0,1
248972000,248972000,1310988,-0.0010652645,0.0,0.00479369,14.819214,0,1
249972000,249972000,1310988,0.004261058,0.0037284256,0.0031957934,14.819214,0,1
250972000,250972000,1310988,0.0031957934,-0.0031957934,-0.0037284256,14.819214,0,1
251972000,251972000,1310988,0.0037284256,0.0,-0.004261058,14.819214,0,1
252972000,252972000,1310988,0.004261058,0.0037284256,-0.0037284256,14.819214,0,1
253972000,253972000,1310988,-0.0010652645,0.0031957934,0.0026631611,14.819214,0,1
254972000,254972000,1310988,-0.002130529,0.0005326322,-0.0015978967,14.819214,0,1
255972000,255972000,1310988,-0.0031957934,-0.0063915867,-0.0026631611,14.819214,0,1
256972000,256972000,1310988,0.0063915867,-0.004261058,0.0010652645,14.819214,0,1
257972000,257972000,1310988,-0.0005326322,-0.0031957934,0.0037284256,14.819214,0,1
258972000,258972000,1310988,0.002130529,0.0,-0.0053263223,14.819214,0,1
259972000,259972000,1310988,0.007456851,0.0010652645,-0.0053263223,14.819214,0,1
260972000,260972000,1310988,-0.0005326322,0.0,-0.0005326322,14.819214,0,1
261972000,261972000,1310988,-0.0026631611,0.0005326322,0.0005326322,14.819214,0,1
262972000,262972000,1310988,0.0,-0.00479369,0.004261058,14.819214,0,1
263972000,263972000,1310988,-0.0005326322,0.0037284256,0.004261058,14.819214,0,1
264972000,264972000,1310988,-0.0031957934,-0.0010652645,0.0058589545,14.819214,0,1
265972000,265972000,1310988,0.008522116,-0.0037284256,0.0,14.819214,0,1
266972000,266972000,1310988,-0.0031957934,-0.0026631611,0.007456851,14.819214,0,1
267972000,267972000,1310988,0.00479369,0.002130529,0.0031957934,14.819214,0,1
268972000,268972000,1310988,0.0037284256,0.0015978967,0.0031957934,14.819214,0,1
269972000,269972000,1310988,0.0037284256,-0.0015978967,0.0026631611,14.819214,0,1
270972000,270972000,1310988,0.0053263223,0.0037284256,0.0005326322,14.819214,0,1
271972000,271972000,1310988,0.0015978967,-0.0026631611,-0.0010652645,14.819214,0,1
272972000,272972000,1310988,0.0010652645,-0.0031957934,0.0037284256,14.819214,0,1
273972000,273972000,1310988,-0.0031957934,-0.0015978967,-0.004261058,14.819214,0,1
274972000,274972000,1310988,0.0,-0.0063915867,0.007456851,14.819214,0,1
275972000,275972000,1310988,0.0026631611,-0.0015978967,-0.009054748,14.819214,0,1
276972000,276972000,1310988,0.004261058,0.0005326322,0.0015978967,14.819214,0,1
277972000,277972000,1310988,0.007989483,0.0026631611,-0.004261058,14.819214,0,1
278972000,278972000,1310988,-0.002130529,0.0031957934,0.0015978967,14.819214,0,1
279972000,279972000,1310988,0.004261058,0.002130529,-0.0015978967,14.819214,0,1
280972000,280972000,1310988,0.0037284256,0.0,0.00479369,14.819214,0,1
281972000,281972000,1310988,0.0037284256,0.0005326322,0.0031957934,14.819214,0,1
282972000,282972000,1310988,-0.006924219,-0.0010652645,0.0010652645,14.819214,0,1
283972000,283972000,1310988,0.0010652645,-0.006924219,-0.0010652645,14.819214,0,1
284972000,284972000,1310988,-0.0015978967,0.004261058,-0.0026631611,14.819214,0,1
285972000,285972000,1310988,0.0,-0.007989483,-0.004261058,14.819214,0,1
286972000,286972000,1310988,0.0005326322,0.0053263223,0.0026631611,14.819214,0,1
287972000,287972000,1310988,0.0010652645,-0.0015978967,0.0005326322,14.819214,0,1
288972000,288972000,1310988,-0.0005326322,0.00479369,0.00479369,14.819214,0,1
289972000,289972000,1310988,-0.0005326322,-0.0026631611,-0.008522116,14.819214,0,1
290972000,290972000,1310988,0.0053263223,-0.0037284256,0.0005326322,14.819214,0,1
291972000,291972000,1310988,0.0026631611,0.0058589545,0.004261058,14.819214,0,1
292972000,292972000,1310988,0.00479369,0.00479369,-0.0026631611,14.819214,0,1
293972000,293972000,1310988,0.0058589545,-0.002130529,-0.0015978967,14.819214,0,1
294972000,294972000,1310988,0.0010652645,0.0063915867,0.0053263223,14.819214,0,1
295972000,295972000,1310988,0.0010652645,0.006924219,0.0026631611,14.819214,0,1
296972000,296972000,1310988,0.0026631611,-0.0058589545,0.002130529,14.819214,0,1
297972000,297972000,1310988,0.002130529,0.0031957934,-0.004261058,14.819214,0,1
298972000,298972000,1310988,0.0010652645,-0.002130529,-0.0010652645,14.819214,0,1
299972000,299972000,1310988,-0.0026631611,0.0031957934,0.002130529,14.819214,0,1
300972000,300972000,1310988,-0.0010652645,0.004261058,0.009054748,14.819214,0,1
301972000,301972000,1310988,0.0037284256,-0.0005326322,0.0015978967,14.819214,0,1
302972000,302972000,1310988,-0.0026631611,0.0015978967,0.007989483,14.819214,0,1
303972000,303972000,1310988,-0.0031957934,-0.0010652645,0.0031957934,14.819214,0,1
304972000,304972000,1310988,0.0015978967,-0.0005326322,-0.0026631611,14.819214,0,1
305972000,305972000,1310988,-0.0005326322,0.0063915867,0.0010652645,14.819214,0,1
306972000,306972000,1310988,0.006924219,-0.0005326322,0.0015978967,14.819214,0,1
307972000,307972000,1310988,0.0037284256,-0.0005326322,-0.0026631611,14.819214,0,1
308972000,308972000,1310988,0.0005326322,-0.0010652645,-0.0031957934,14.819214,0,1
309972000,309972000,1310988,0.0053263223,-0.0031957934,0.007456851,14.819214,0,1
310972000,310972000,1310988,0.00479369,-0.0058589545,0.0063915867,14.819214,0,1
311972000,311972000,1310988,0.0010652645,-0.0031957934,0.0026631611,14.819214,0,1
312972000,312972000,1310988,-0.0031957934,-0.00479369,-0.0063915867,14.819214,0,1
313972000,313972000,1310988,-0.0058589545,0.0,0.0031957934,14.819214,0,1
314972000,314972000,1310988,-0.0026631611,0.0031957934,-0.0015978967,14.819214,0,1
315972000,315972000,1310988,0.002130529,-0.0010652645,-0.0010652645,14.819214,0,1
316972000,316972000,1310988,-0.0015978967,-0.0026631611,0.0005326322,14.819214,0,1
317972000,317972000,1310988,0.0,-0.0026631611,-0.0015978967,14.819214,0,1
318972000,318972000,1310988,0.0005326322,0.0010652645,0.0010652645,14.819214,0,1
319972000,319972000,1310988,0.00479369,-0.0015978967,-0.0026631611,14.819214,0,1
320972000,320972000,1310988,0.00479369,0.0015978967,0.0026631611,14.819214,0,1
321972000,321972000,1310988,0.0037284256,0.0015978967,0.006924219,14.819214,0,1
322972000,322972000,1310988,0.0026631611,-0.007456851,-0.0031957934,14.819214,0,1
323972000,323972000,1310988,0.018642128,0.04474111,0.0063915867,14.817993,0,1
324972000,324972000,1310988,-0.013848438,-0.020240024,0.004261058,14.813812,0,1
325972000,325972000,1310988,-0.0005326322,0.013315806,-0.0005326322,14.808685,0,1
326972000,326972000,1310988,0.0127831735,-0.0053263223,0.0058589545,14.802795,0,1
327972000,327972000,1310988,-0.013315806,0.009054748,0.0005326322,14.796417,0,1
328972000,328972000,1310988,0.018642128,-0.0026631611,0.0005326322,14.790039,0,1
329972000,329972000,1310988,-0.0015978967,-0.01438107,0.002130529,14.783539,0,1
330972000,330972000,1310988,0.018109497,0.011717909,-0.0031957934,14.777069,0,1
331972000,331972000,1310988,-0.0031957934,0.0053263223,0.0,14.770752,0,1
332972000,332972000,1310988,0.010652645,-0.0005326322,0.002130529,14.764282,0,1
333972000,333972000,1310988,-0.011717909,-0.0015978967,0.00479369,14.757874,0,1
334972000,334972000,1310988,0.012250541,0.0010652645,0.0037284256,14.751038,0,1
335972000,335972000,1310988,0.0053263223,0.0058589545,0.0015978967,14.734741,0,1
336972000,336972000,1310988,0.009054748,0.013848438,0.0058589545,14.716217,0,1
337972000,337972000,1310988,-0.010120012,-0.004261058,-0.002130529,14.697601,0,1
338972000,338972000,1310988,0.01438107,-0.019707393,0.0,14.678467,0,1
339972000,339972000,1310988,-0.007989483,-0.02396845,0.0031957934,14.659271,0,1
340972000,340972000,1310988,0.007456851,-0.013848438,0.0058589545,14.640503,0,1
341972000,341972000,1310988,-0.018109497,0.002130529,-0.006924219,14.62146,0,1
342972000,342972000,1310988,0.0,0.0063915867,-0.0031957934,14.602234,0,1
343972000,343972000,1310988,0.007456851,-0.0063915867,0.0026631611,14.583282,0,1
344972000,344972000,1310988,-0.0058589545,0.0010652645,-0.0015978967,14.564056,0,1
345972000,345972000,1310988,-0.0063915867,0.004261058,-0.0026631611,14.545013,0,1
346972000,346972000,1310988,-0.0015978967,0.010652645,0.0037284256,14.526672,0,1
347972000,347972000,1310988,-0.002130529,0.0053263223,-0.0005326322,14.508087,0,1
348972000,348972000,1310988,-0.002130529,0.01438107,-0.0037284256,14.489441,0,1
349972000,349972000,1310988,0.0,-0.006924219,0.0015978967,14.4711,0,1
350972000,350972000,1310988,-0.0037284256,0.0037284256,-0.0031957934,14.452148,0,1
351972000,351972000,1310988,-0.00479369,0.020240024,0.0010652645,14.432861,0,1
352972000,352972000,1310988,-0.002130529,-0.0037284256,0.002130529,14.413757,0,1
353972000,353972000,1310988,0.011185277,0.013315806,-0.002130529,14.395477,0,1
354972000,354972000,1310988,-0.004261058,-0.018109497,0.010652645,14.382629,0,1
355972000,355972000,1310988,-0.0031957934,0.0127831735,0.0010652645,14.375793,0,1
356972000,356972000,1310988,0.0015978967,-0.0005326322,-0.006924219,14.371948,0,1
357972000,357972000,1310988,-0.0053263223,0.002130529,-1.0306433,14.3706665,0,1
358972000,358972000,1310988,0.004261058,0.002130529,-0.819721,14.370697,0,1
359972000,359972000,1310988,0.024501082,0.01438107,0.012250541,14.37088,0,1
360972000,360972000,1310988,0.046339005,0.0005326322,0.10226539,14.371246,0,1
361972000,361972000,1310988,-0.21678132,0.1438107,0.046871636,14.374023,0,1
362972000,362972000,1310988,0.017576864,0.0479369,-0.14487597,14.379913,0,1
363972000,363972000,1310988,0.049534798,0.07350325,0.041012682,14.381439,0,1
364972000,364972000,1310988,0.013848438,-0.020240024,-0.024501082,14.375732,0,1
365972000,365972000,1310988,0.004261058,-0.039414786,0.009054748,14.370361,0,1
366972000,366972000,1310988,0.0026631611,-0.006924219,0.0010652645,14.368195,0,1
367972000,367972000,1310988,-0.0026631611,-0.006924219,-0.009054748,14.36731,0,1
368972000,368972000,1310988,0.0010652645,0.0005326322,0.011717909,14.366577,0,1
369972000,369972000,1310988,0.002130529,0.0005326322,-0.013848438,14.365845,0,1
370972000,370972000,1310988,-0.004261058,0.002130529,0.0058589545,14.3654175,0,1
371972000,371972000,1310988,0.0010652645,-0.0015978967,-0.002130529,14.365265,0,1
372972000,372972000,1310988,-0.0010652645,-0.004261058,0.0026631611,14.365082,0,1
373972000,373972000,1310988,0.0010652645,-0.002130529,0.0005326322,14.364929,0,1
374972000,374972000,1310988,0.0,0.0031957934,-0.0026631611,14.364777,0,1
375972000,375972000,1310988,0.004261058,-0.0010652645,0.0037284256,14.364777,0,1
376972000,376972000,1310988,0.0,0.0026631611,-0.0015978967,14.364807,0,1
377972000,377972000,1310988,-0.00958738,0.002130529,0.0053263223,14.364807,0,1
378972000,378972000,1310988,0.0005326322,0.002130529,-0.0010652645,14.364777,0,1
379972000,379972000,1310988,-0.0010652645,-0.0005326322,0.004261058,14.364777,0,1
380972000,380972000,1310988,0.007989483,0.002130529,-0.0063915867,14.364868,0,1
381972000,381972000,1310988,0.002130529,-0.004261058,-0.002130529,14.364929,0,1
382972000,382972000,1310988,0.0026631611,0.0026631611,-0.002130529,14.365143,0,1
383972000,383972000,1310988,0.00958738,-0.0015978967,0.002130529,14.365204,0,1
384972000,384972000,1310988,0.0053263223,-0.0015978967,0.0,14.365265,0,1
385972000,385972000,1310988,0.0015978967,0.0015978967,-0.0005326322,14.365356,0,1
386972000,386972000,1310988,0.055926383,0.0037284256,0.00479369,14.3654785,0,1
387972000,387972000,1310988,0.03089267,0.0026631611,0.053263225,14.36557,0,1
388972000,388972000,1310988,-0.01438107,0.0005326322,0.053795855,14.365784,0,1
389972000,389972000,1310988,-0.019707393,0.036751624,0.039947417,14.365723,0,1
390972000,390972000,1310988,-0.02609898,0.02876214,0.02876214,14.36319,0,1
391972000,391972000,1310988,-0.011185277,0.00958738,0.0053263223,14.358459,0,1
392972000,392972000,1310988,-0.002130529,0.008522116,0.0,14.352509,0,1
393972000,393972000,1310988,-0.007456851,0.0037284256,-0.0005326322,14.346069,0,1
394972000,394972000,1310988,0.0,0.00479369,-0.004261058,14.339355,0,1
395972000,395972000,1310988,0.0031957934,0.0015978967,0.002130529,14.332275,0,1
396972000,396972000,1310988,-0.0010652645,0.0063915867,0.0015978967,14.325195,0,1
397972000,397972000,1310988,0.0005326322,-0.006924219,0.0026631611,14.318146,0,1
398972000,398972000,1310988,-0.0010652645,0.004261058,0.0010652645,14.311066,0,1
399972000,399972000,1310988,0.0010652645,-0.0015978967,0.002130529,14.303833,0,1
400972000,400972000,1310988,-0.00479369,-0.0037284256,-0.0026631611,14.296783,0,1
401972000,401972000,1310988,-0.0010652645,0.008522116,0.0026631611,14.289612,0,1
402972000,402972000,1310988,0.0031957934,-0.0005326322,-0.0026631611,14.282318,0,1
403972000,403972000,1310988,0.0026631611,-0.0005326322,0.0010652645,14.275238,0,1
404972000,404972000,1310988,0.0053263223,0.0005326322,0.0037284256,14.267975,0,1
405972000,405972000,1310988,-0.0005326322,0.0063915867,0.007989483,14.260712,0,1
406972000,406972000,1310988,-0.0031957934,0.0015978967,-0.0015978967,14.25354,0,1
407972000,407972000,1310988,0.0005326322,-0.0058589545,0.0063915867,14.246155,0,1
408972000,408972000,1310988,0.0,0.00479369,0.0053263223,14.239014,0,1
409972000,409972000,1310988,-0.00479369,-0.0005326322,0.0,14.231995,0,1
410972000,410972000,1310988,0.0,-0.0063915867,0.0037284256,14.224701,0,1
411972000,411972000,1310988,0.0,-0.0031957934,0.002130529,14.217529,0,1
412972000,412972000,1310988,-0.0026631611,0.0005326322,0.002130529,14.210541,0,1
413972000,413972000,1310988,-0.0026631611,-0.0015978967,-0.0005326322,14.203491,0,1
414972000,414972000,1310988,0.004261058,-0.0015978967,-0.0026631611,14.196411,0,1
415972000,415972000,1310988,0.0031957934,0.00479369,-0.0015978967,14.189453,0,1
416972000,416972000,1310988,0.0,0.004261058,0.004261058,14.1822815,0,1
417972000,417972000,1310988,0.002130529,0.00479369,0.0005326322,14.175049,0,1
418972000,418972000,1310988,0.01438107,0.19867182,-0.0063915867,14.167633,0,1
419972000,419972000,1310988,-0.0058589545,0.021837922,0.0127831735,14.150299,0,1
420972000,420972000,1310988,-0.00958738,-0.0127831735,-0.0010652645,14.1284485,0,1
421972000,421972000,1310988,0.004261058,-0.0026631611,0.0031957934,14.108337,0,1
422972000,422972000,1310988,-0.004261058,-0.009054748,0.0058589545,14.088715,0,1
423972000,423972000,1310988,-0.0058589545,-0.002130529,-0.0015978967,14.069153,0,1
424972000,424972000,1310988,-0.00479369,-0.18482338,0.002130529,14.051025,0,1
425972000,425972000,1310988,0.0063915867,-0.03834952,-0.006924219,14.04483,0,1
426972000,426972000,1310988,0.0010652645,0.011717909,0.002130529,14.044403,0,1
427972000,427972000,1310988,-0.0053263223,0.002130529,-0.0031957934,14.043274,0,1
428972000,428972000,1310988,0.0053263223,-0.008522116,0.0005326322,14.041901,0,1
429972000,429972000,1310988,-0.008522116,-0.006924219,0.0015978967,14.040985,0,1
430972000,430972000,1310988,0.002130529,-0.0037284256,0.0005326322,14.040466,0,1
431972000,431972000,1310988,-0.2695119,-0.0015978967,-0.011185277,14.040039,0,1
432972000,432972000,1310988,-0.3158509,0.083090626,-0.21891184,14.039917,0,1
433972000,433972000,1310988,-0.029827405,0.25885928,-0.4048005,14.041351,0,1
434972000,434972000,1310988,0.49747851,0.0958738,-0.2412824,14.042145,0,1
435972000,435972000,1310988,0.37603834,0.01917476,0.10705908,14.04071,0,1
436972000,436972000,1310988,0.11611383,0.10918961,0.27643612,14.039703,0,1
437972000,437972000,1310988,0.017576864,0.14434333,0.28229508,14.039612,0,1
438972000,438972000,1310988,-0.025033714,0.1571265,0.31798145,14.039856,0,1
439972000,439972000,1310988,-0.036751624,0.13848437,0.2806972,14.039978,0,1
440972000,440972000,1310988,-0.02396845,0.1304949,0.28549087,14.039978,0,1
441972000,441972000,1310988,-0.017044231,0.11451593,0.26205507,14.040039,0,1
442972000,442972000,1310988,-0.006924219,0.10759171,0.26684874,14.040039,0,1
443972000,443972000,1310988,-0.015446335,0.11504856,0.2615224,14.040192,0,1
444972000,444972000,1310988,-0.014913702,0.113983296,0.26312032,14.040283,0,1
445972000,445972000,1310988,-0.010652645,0.11558119,0.26897928,14.040375,0,1
446972000,446972000,1310988,-0.0037284256,0.108124346,0.26684874,14.040466,0,1
447972000,447972000,1310988,-0.015446335,0.12357068,0.27004454,14.040619,0,1
448972000,448972000,1310988,-0.013848438,0.11611383,0.26205507,14.040649,0,1
449972000,449972000,1310988,-0.013848438,0.11504856,0.26738137,14.04071,0,1
450972000,450972000,1310988,-0.018642128,0.12037488,0.26205507,14.040741,0,1
451972000,451972000,1310988,-0.006924219,0.11717909,0.27483824,14.0407715,0,1
452972000,452972000,1310988,-0.008522116,0.11451593,0.25672874,14.040863,0,1
453972000,453972000,1310988,-0.007989483,0.11664646,0.26312032,14.041016,0,1
454972000,454972000,1310988,-0.017576864,0.111852765,0.26738137,14.041077,0,1
455972000,455972000,1310988,-0.011185277,0.11558119,0.26418558,14.041016,0,1
456972000,456972000,1310988,-0.013848438,0.11717909,0.267914,14.040955,0,1
457972000,457972000,1310988,-0.013315806,0.113983296,0.2625877,14.040955,0,1
458972000,458972000,1310988,-0.0037284256,0.11504856,0.27324033,14.040863,0,1
459972000,459972000,1310988,-0.010120012,0.1123854,0.27057716,14.040802,0,1
460972000,460972000,1310988,-0.017044231,0.10652645,0.26738137,14.040802,0,1
461972000,461972000,1310988,-0.010120012,0.11824436,0.27057716,14.04071,0,1
462972000,462972000,1310988,-0.017576864,0.1107875,0.2625877,14.040588,0,1
463972000,463972000,1310988,-0.017044231,0.108124346,0.26631612,14.040497,0,1
464972000,464972000,1310988,-0.011185277,0.12250541,0.2625877,14.040527,0,1
465972000,465972000,1310988,-0.016511599,0.11664646,0.26418558,14.040497,0,1
466972000,466972000,1310988,-0.006924219,0.11664646,0.26418558,14.040436,0,1
467972000,467972000,1310988,-0.00958738,0.11930962,0.27004454,14.040344,0,1
468972000,468972000,1310988,-0.016511599,0.1107875,0.26312032,14.040314,0,1
469972000,469972000,1310988,-0.011185277,0.10546118,0.25992453,14.040344,0,1
470972000,470972000,1310988,-0.017044231,0.11345066,0.267914,14.040466,0,1
471972000,471972000,1310988,-0.0026631611,0.11345066,0.2609898,14.040558,0,1
472972000,472972000,1310988,-0.011717909,0.11558119,0.26365295,14.040619,0,1
473972000,473972000,1310988,-0.0063915867,0.113983296,0.27004454,14.040741,0,1
474972000,474972000,1310988,-0.024501082,0.11132014,0.2695119,14.040863,0,1
475972000,475972000,1310988,-0.016511599,0.11558119,0.27217507,14.041016,0,1
476972000,476972000,1310988,-0.006924219,0.113983296,0.26684874,14.041168,0,1
477972000,477972000,1310988,-0.01438107,0.10546118,0.26738137,14.041443,0,1
478972000,478972000,1310988,-0.0026631611,0.11824436,0.26897928,14.0416565,0,1
479972000,479972000,1310988,-0.004261058,0.12197278,0.26525086,14.041718,0,1
480972000,480972000,1310988,-0.00958738,0.10918961,0.2593919,14.041687,0,1
481972000,481972000,1310988,-0.012250541,0.11504856,0.26684874,14.041748,0,1
482972000,482972000,1310988,-0.0127831735,0.11025487,0.26525086,14.041687,0,1
483972000,483972000,1310988,-0.010120012,0.11132014,0.26525086,14.041626,0,1
484972000,484972000,1310988,-0.013848438,0.111852765,0.26312032,14.041504,0,1
485972000,485972000,1310988,-0.017044231,0.1107875,0.27004454,14.041382,0,1
486972000,486972000,1310988,-0.007989483,0.11345066,0.2790993,14.04129,0,1
487972000,487972000,1310988,-0.00958738,0.1123854,0.2695119,14.041138,0,1
488972000,488972000,1310988,-0.004261058,0.111852765,0.27324033,14.041016,0,1
489972000,489972000,1310988,-0.00958738,0.11717909,0.2625877,14.040924,0,1
490972000,490972000,1310988,-0.011717909,0.11451593,0.2615224,14.040924,0,1
491972000,491972000,1310988,-0.01438107,0.12197278,0.26631612,14.041046,0,1
492972000,492972000,1310988,-0.009054748,0.11930962,0.2657835,14.041107,0,1
493972000,493972000,1310988,-0.006924219,0.113983296,0.26312032,14.040985,0,1
494972000,494972000,1310988,-0.007456851,0.11771172,0.26418558,14.040863,0,1
495972000,495972000,1310988,-0.0063915867,0.10759171,0.2625877,14.04071,0,1
496972000,496972000,1310988,-0.012250541,0.11717909,0.25672874,14.040741,0,1
497972000,497972000,1310988,-0.011185277,0.105993815,0.267914,14.040588,0,1
498972000,498972000,1310988,-0.00958738,0.112918034,0.27483824,14.040375,0,1
499972000,499972000,1310988,-0.006924219,0.11132014,0.25885928,14.040375,0,1
500972000,500972000,1310988,-0.0005326322,0.11824436,0.26525086,14.040436,0,1
501972000,501972000,1310988,-0.01917476,0.108124346,0.26365295,14.040375,0,1
502972000,502972000,1310988,-0.007456851,0.11504856,0.2625877,14.040283,0,1
503972000,503972000,1310988,-0.008522116,0.12250541,0.26738137,14.040283,0,1
504972000,504972000,1310988,-0.00479369,0.12144015,0.2647182,14.040314,0,1
505972000,505972000,1310988,-0.0127831735,0.113983296,0.2695119,14.040344,0,1
506972000,506972000,1310988,-0.0127831735,0.12037488,0.2695119,14.040375,0,1
507972000,507972000,1310988,-0.013848438,0.10759171,0.26365295,14.040344,0,1
508972000,508972000,1310988,-0.013315806,0.108124346,0.26631612,14.040314,0,1
509972000,509972000,1310988,-0.0031957934,0.112918034,0.2647182,14.040314,0,1
510972000,510972000,1310988,-0.0063915867,0.11504856,0.2647182,14.040283,0,1
511972000,511972000,1310988,-0.011185277,0.11984225,0.26418558,14.040375,0,1
512972000,512972000,1310988,-0.014913702,0.10918961,0.27164245,14.040283,0,1
513972000,513972000,1310988,-0.009054748,0.1123854,0.26525086,14.040253,0,1
514972000,514972000,1310988,-0.0010652645,0.11025487,0.27057716,14.040344,0,1
515972000,515972000,1310988,-0.007989483,0.11664646,0.27324033,14.040466,0,1
516972000,516972000,1310988,-0.011717909,0.11930962,0.26525086,14.040527,0,1
517972000,517972000,1310988,-0.004261058,0.11345066,0.27004454,14.040649,0,1
518972000,518972000,1310988,-0.004261058,0.1107875,0.2727077,14.040863,0,1
519972000,519972000,1310988,-0.007989483,0.10865697,0.26525086,14.041077,0,1
520972000,520972000,1310988,-0.009054748,0.11664646,0.26684874,14.04126,0,1
521972000,521972000,1310988,-0.020772656,0.11717909,0.27004454,14.041443,0,1
522972000,522972000,1310988,-0.009054748,0.11771172,0.2625877,14.041626,0,1
523972000,523972000,1310988,-0.008522116,0.11611383,0.26365295,14.041809,0,1
524972000,524972000,1310988,-0.0058589545,0.11664646,0.26365295,14.041931,0,1
525972000,525972000,1310988,-0.0037284256,0.111852765,0.26897928,14.042053,0,1
526972000,526972000,1310988,-0.010120012,0.10865697,0.26684874,14.042023,0,1
527972000,527972000,1310988,0.36325517,0.4660532,0.32756883,14.041565,0,1
528972000,528972000,1310988,-0.43995422,0.350472,0.4346279,14.033447,0,1
529972000,529972000,1310988,-0.3392867,0.06231797,0.06498113,14.015228,0,1
530972000,530972000,1310988,-0.07669904,-0.03355583,0.03834952,13.991913,0,1
531972000,531972000,1310988,-0.015446335,-0.01917476,-0.014913702,13.971039,0,1
532972000,532972000,1310988,0.016511599,0.002130529,-0.0053263223,13.952362,0,1
533972000,533972000,1310988,0.0,0.0053263223,0.0053263223,13.933289,0,1
534972000,534972000,1310988,0.0026631611,-0.007456851,-0.00479369,13.914032,0,1
535972000,535972000,1310988,-0.0005326322,-0.002130529,0.0063915867,13.895172,0,1
536972000,536972000,1310988,0.0,-0.0063915867,-0.0053263223,13.875671,0,1
537972000,537972000,1310988,0.0,0.0053263223,0.0058589545,13.856171,0,1
538972000,538972000,1310988,-0.0015978967,0.0037284256,-0.0037284256,13.837097,0,1
539972000,539972000,1310988,0.0,0.009054748,0.007989483,13.817444,0,1
540972000,540972000,1310988,0.0026631611,-0.00479369,0.0026631611,13.79776,0,1
541972000,541972000,1310988,0.0015978967,-0.007456851,0.007989483,13.778564,0,1
542972000,542972000,1310988,-0.0037284256,-0.0026631611,-0.0005326322,13.75882,0,1
543972000,543972000,1310988,0.004261058,-0.0053263223,0.0015978967,13.739105,0,1
544972000,544972000,1310988,0.002130529,0.0031957934,-0.0026631611,13.719879,0,1
545972000,545972000,1310988,0.008522116,0.0058589545,0.0010652645,13.700134,0,1
546972000,546972000,1310988,-0.0015978967,0.0026631611,0.0010652645,13.680389,0,1
547972000,547972000,1310988,0.002130529,0.0005326322,-0.0015978967,13.661102,0,1
548972000,548972000,1310988,0.0026631611,0.007456851,-0.0015978967,13.641449,0,1
549972000,549972000,1310988,0.0037284256,0.0063915867,0.0,13.621765,0,1
550972000,550972000,1310988,-0.0058589545,-0.0010652645,0.002130529,13.60257,0,1
551972000,551972000,1310988,0.004261058,-0.0026631611,0.0026631611,13.582947,0,1
552972000,552972000,1310988,0.0,-0.004261058,-0.002130529,13.563263,0,1
553972000,553972000,1310988,0.0005326322,0.0015978967,0.0,13.543945,0,1
554972000,554972000,1310988,0.0010652645,-0.0005326322,0.0031957934,13.524078,0,1
555972000,555972000,1310988,0.0037284256,0.0,-0.0015978967,13.50415,0,1
556972000,556972000,1310988,0.007456851,0.0,0.0053263223,13.484863,0,1
557972000,557972000,1310988,-0.0010652645,0.004261058,0.0005326322,13.464966,0,1
558972000,558972000,1310988,-0.00479369,-0.0037284256,0.002130529,13.445007,0,1
559972000,559972000,1310988,0.0026631611,0.0,0.0031957934,13.425812,0,1
560972000,560972000,1310988,0.002130529,0.0053263223,-0.008522116,13.406158,0,1
561972000,561972000,1310988,0.0026631611,-0.0053263223,-0.004261058,13.3862915,0,1
562972000,562972000,1310988,-0.0015978967,-0.0010652645,-0.002130529,13.367096,0,1
563972000,563972000,1310988,-0.0026631611,-0.008522116,0.0,13.347382,0,1
564972000,564972000,1310988,0.0,-0.0010652645,0.0010652645,13.327759,0,1
565972000,565972000,1310988,-0.0015978967,0.007456851,-0.0015978967,13.308777,0,1
566972000,566972000,1310988,-0.0015978967,-0.0031957934,-0.013315806,13.289124,0,1
567972000,567972000,1310988,0.010652645,-0.0058589545,-0.002130529,13.26944,0,1
568972000,568972000,1310988,0.002130529,-0.004261058,0.009054748,13.250427,0,1
569972000,569972000,1310988,0.004261058,0.0015978967,0.0015978967,13.230957,0,1
570972000,570972000,1310988,-0.0026631611,-0.12144015,0.0010652645,13.211456,0,1
571972000,571972000,1310988,-0.0005326322,-0.07882957,-0.0010652645,13.200195,0,1
572972000,572972000,1310988,0.0037284256,0.0005326322,-0.0058589545,13.198547,0,1
573972000,573972000,1310988,0.0010652645,0.00958738,0.007456851,13.197845,0,1
574972000,574972000,1310988,0.0063915867,-0.00479369,0.0005326322,13.196564,0,1
575972000,575972000,1310988,-0.0005326322,-0.0037284256,0.00479369,13.195526,0,1
576972000,576972000,1310988,0.0037284256,-0.0031957934,-0.0026631611,13.194885,0,1
577972000,577972000,1310988,0.0015978967,-0.0058589545,-0.00479369,13.194611,0,1
578972000,578972000,1310988,-0.0031957934,-0.0015978967,-0.004261058,13.19458,0,1
579972000,579972000,1310988,-0.004261058,-0.010652645,0.0,13.194489,0,1
580972000,580972000,1310988,-0.0015978967,-0.0005326322,0.002130529,13.194489,0,1
581972000,581972000,1310988,0.49002165,0.12623383,0.17789917,13.194885,0,1
582972000,582972000,1310988,-0.0015978967,0.32437304,0.5107943,13.197876,0,1
583972000,583972000,1310988,-0.19813919,0.19813919,0.2428803,13.199036,0,1
584972000,584972000,1310988,-0.17204021,0.07882957,0.27537087,13.197784,0,1
585972000,585972000,1310988,-0.14647387,0.02130529,0.08735169,13.196136,0,1
586972000,586972000,1310988,-0.072970614,-0.015446335,0.05219796,13.194641,0,1
587972000,587972000,1310988,-0.034621093,-0.00479369,0.007989483,13.194305,0,1
588972000,588972000,1310988,-0.01438107,-0.0015978967,-0.004261058,13.194458,0,1
589972000,589972000,1310988,-0.006924219,0.01438107,0.0,13.194763,0,1
590972000,590972000,1310988,0.0026631611,-0.010120012,-0.004261058,13.194794,0,1
591972000,591972000,1310988,0.0010652645,0.0015978967,0.0063915867,13.194885,0,1
592972000,592972000,1310988,0.0063915867,-0.0053263223,-0.012250541,13.194824,0,1
593972000,593972000,1310988,-0.00479369,-0.0026631611,0.0010652645,13.194824,0,1
594972000,594972000,1310988,-0.0026631611,-0.0026631611,-0.0031957934,13.194824,0,1
595972000,595972000,1310988,-0.0063915867,0.0031957934,-0.00479369,13.194946,0,1
596972000,596972000,1310988,-0.004261058,-0.0053263223,0.007456851,13.194916,0,1
597972000,597972000,1310988,0.0015978967,-0.011185277,0.0026631611,13.194916,0,1
598972000,598972000,1310988,-0.00479369,0.0026631611,-0.0026631611,13.195038,0,1
599972000,599972000,1310988,0.0005326322,0.007989483,0.0010652645,13.195099,0,1
600972000,600972000,1310988,0.010120012,-0.0015978967,-0.0005326322,13.195068,0,1
601972000,601972000,1310988,0.0031957934,-0.002130529,-0.0005326322,13.195068,0,1
602972000,602972000,1310988,0.0,0.007989483,0.0010652645,13.195251,0,1
603972000,603972000,1310988,-0.0015978967,0.0063915867,0.0053263223,13.195343,0,1
604972000,604972000,1310988,0.0026631611,-0.0037284256,-0.007456851,13.1953125,0,1
605972000,605972000,1310988,0.0026631611,-0.00479369,-0.0010652645,13.195465,0,1
606972000,606972000,1310988,0.0058589545,0.0015978967,0.0058589545,13.19574,0,1
607972000,607972000,1310988,-0.00479369,0.00479369,0.002130529,13.195862,0,1
608972000,608972000,1310988,-0.002130529,0.0010652645,-0.0037284256,13.195892,0,1
609972000,609972000,1310988,0.002130529,-0.0026631611,-0.0026631611,13.196075,0,1
610972000,610972000,1310988,0.0037284256,0.00479369,-0.0058589545,13.196289,0,1
611972000,611972000,1310988,-0.006924219,-0.0015978967,0.00479369,13.196533,0,1
612972000,612972000,1310988,0.0005326322,0.0010652645,0.004261058,13.196503,0,1
613972000,613972000,1310988,-0.0037284256,-0.008522116,0.002130529,13.196503,0,1
614972000,614972000,1310988,-0.0058589545,-0.0037284256,0.004261058,13.196808,0,1
615972000,615972000,1310988,0.0031957934,0.007456851,0.006924219,13.197113,0,1
616972000,616972000,1310988,0.004261058,0.004261058,-0.0015978967,13.197327,0,1
617972000,617972000,1310988,-0.004261058,-0.0005326322,-0.0015978967,13.19751,0,1
618972000,618972000,1310988,-0.007456851,-0.0015978967,-0.0031957934,13.19751,0,1
619972000,619972000,1310988,0.0063915867,0.0037284256,-0.0026631611,13.19751,0,1
620972000,620972000,1310988,-0.002130529,-0.0005326322,0.0010652645,13.197601,0,1
621972000,621972000,1310988,0.0026631611,0.009054748,0.0031957934,13.197693,0,1
622972000,622972000,1310988,-0.0037284256,0.0015978967,0.0,13.197662,0,1
623972000,623972000,1310988,0.0005326322,0.0037284256,0.0063915867,13.197723,0,1
624972000,624972000,1310988,-0.0010652645,-0.004261058,-0.0031957934,13.197693,0,1
625972000,625972000,1310988,0.00479369,-0.0058589545,0.0,13.19754,0,1
626972000,626972000,1310988,0.0015978967,0.0,-0.0026631611,13.197479,0,1
627972000,627972000,1310988,-0.002130529,-0.011185277,0.00479369,13.197235,0,1
628972000,628972000,1310988,0.0063915867,-0.00958738,-0.0031957934,13.1970825,0,1
629972000,629972000,1310988,-0.0010652645,0.0005326322,0.007989483,13.19696,0,1
630972000,630972000,1310988,0.0063915867,0.0015978967,0.007989483,13.196838,0,1
631972000,631972000,1310988,0.00479369,-0.0063915867,0.0010652645,13.196716,0,1
632972000,632972000,1310988,0.011717909,0.0031957934,0.0005326322,13.196747,0,1
633972000,633972000,1310988,-0.0026631611,0.0,0.0005326322,13.196564,0,1
634972000,634972000,1310988,0.0,-0.0026631611,-0.0026631611,13.196442,0,1
635972000,635972000,1310988,-0.0005326322,-0.0010652645,-0.002130529,13.196533,0,1
636972000,636972000,1310988,0.002130529,-0.0026631611,-0.0037284256,13.196564,0,1
637972000,637972000,1310988,-0.007456851,-0.0037284256,-0.0031957934,13.196655,0,1
638972000,638972000,1310988,0.004261058,-0.0058589545,0.0015978967,13.196655,0,1
639972000,639972000,1310988,0.0015978967,-0.013848438,0.0037284256,13.196655,0,1
640972000,640972000,1310988,-0.0037284256,-0.0010652645,0.0037284256,13.196655,0,1
641972000,641972000,1310988,0.0005326322,-0.0026631611,0.004261058,13.196808,0,1
642972000,642972000,1310988,-0.0053263223,0.0010652645,0.011185277,13.196838,0,1
643972000,643972000,1310988,-0.0015978967,-0.006924219,0.0026631611,13.196869,0,1
644972000,644972000,1310988,0.0058589545,0.0005326322,0.0053263223,13.196869,0,1
645972000,645972000,1310988,-0.002130529,0.00479369,-0.002130529,13.196869,0,1
646972000,646972000,1310988,-0.002130529,-0.0053263223,-0.002130529,13.196838,0,1
647972000,647972000,1310988,0.0037284256,-0.0005326322,0.0031957934,13.196991,0,1
648972000,648972000,1310988,0.0005326322,0.0015978967,0.0031957934,13.197113,0,1
649972000,649972000,1310988,-0.0037284256,-0.0053263223,0.0031957934,13.197113,0,1
650972000,650972000,1310988,0.007989483,-0.00479369,0.007989483,13.197144,0,1
651972000,651972000,1310988,-0.0063915867,0.0005326322,0.002130529,13.197266,0,1
652972000,652972000,1310988,-0.0010652645,0.004261058,0.0063915867,13.197144,0,1
653972000,653972000,1310988,-0.0053263223,0.0031957934,0.0053263223,13.19696,0,1
654972000,654972000,1310988,0.0015978967,-0.002130529,0.0005326322,13.196899,0,1
655972000,655972000,1310988,-0.004261058,0.0053263223,-0.0015978967,13.19696,0,1
656972000,656972000,1310988,-0.0026631611,-0.007456851,0.006924219,13.196808,0,1
657972000,657972000,1310988,-0.0010652645,-0.008522116,-0.004261058,13.196655,0,1
658972000,658972000,1310988,-0.0063915867,0.007989483,0.0,13.196594,0,1
659972000,659972000,1310988,-0.002130529,0.009054748,0.0026631611,13.19635,0,1
660972000,660972000,1310988,0.0031957934,0.0015978967,0.0031957934,13.196045,0,1
661972000,661972000,1310988,0.0026631611,0.0026631611,0.0,13.195831,0,1
662972000,662972000,1310988,0.0010652645,-0.004261058,0.010120012,13.195679,0,1
663972000,663972000,1310988,-0.0015978967,-0.0015978967,0.011185277,13.195465,0,1
664972000,664972000,1310988,-0.008522116,-0.0037284256,0.0010652645,13.195435,0,1
665972000,665972000,1310988,-0.004261058,0.0,0.0037284256,13.195435,0,1
666972000,666972000,1310988,0.0,-0.0037284256,0.0,13.195221,0,1
667972000,667972000,1310988,-0.004261058,-0.0053263223,0.0005326322,13.195068,0,1
668972000,668972000,1310988,0.0010652645,0.006924219,0.0005326322,13.19516,0,1
669972000,669972000,1310988,0.009054748,0.0026631611,0.0005326322,13.195374,0,1
670972000,670972000,1310988,0.0015978967,-0.0053263223,-0.0031957934,13.195404,0,1
671972000,671972000,1310988,0.0031957934,-0.006924219,0.002130529,13.195435,0,1
672972000,672972000,1310988,-0.25300032,0.18322548,-0.28442562,13.196228,0,1
673972000,673972000,1310988,0.06711166,0.35633096,-0.4809669,13.199188,0,1
674972000,674972000,1310988,0.19813919,0.14753912,-0.2444782,13.199097,0,1
675972000,675972000,1310988,0.18002969,0.06178534,-0.2806972,13.19751,0,1
676972000,676972000,1310988,0.14913702,0.0015978967,-0.06018744,13.195862,0,1
677972000,677972000,1310988,0.066046394,-0.008522116,-0.058589544,13.194855,0,1
678972000,678972000,1310988,0.037284255,-0.004261058,0.010652645,13.194763,0,1
679972000,679972000,1310988,0.009054748,0.0,0.01438107,13.195068,0,1
680972000,680972000,1310988,-0.0053263223,0.009054748,0.013315806,13.195496,0,1
681972000,681972000,1310988,-0.763262,0.08681905,-0.12357068,13.195923,0,1
682972000,682972000,1310988,-0.022370555,0.32117724,-0.5230448,13.198517,0,1
683972000,683972000,1310988,0.17789917,0.21997711,-0.25406557,13.199982,0,1
684972000,684972000,1310988,0.1768339,0.09161274,-0.28229508,13.1987915,0,1
685972000,685972000,1310988,0.15286545,0.037284255,-0.12037488,13.197479,0,1
686972000,686972000,1310988,0.08841695,-0.0063915867,-0.05273059,13.196014,0,1
687972000,687972000,1310988,0.044208474,0.0005326322,-0.020772656,13.195526,0,1
688972000,688972000,1310988,0.01438107,-0.0010652645,0.018109497,13.1953125,0,1
689972000,689972000,1310988,-0.0010652645,-0.0026631611,0.0026631611,13.195374,0,1
690972000,690972000,1310988,-0.00479369,0.0063915867,0.014913702,13.195496,0,1
691972000,691972000,1310988,-0.012250541,-0.0026631611,0.0037284256,13.195587,0,1
692972000,692972000,1310988,-0.0058589545,0.0063915867,0.013315806,13.195618,0,1
693972000,693972000,1310988,0.0058589545,0.006924219,-0.007456851,13.195679,0,1
694972000,694972000,1310988,0.0031957934,0.0015978967,-0.0015978967,13.195618,0,1
695972000,695972000,1310988,0.004261058,0.00479369,0.0010652645,13.195557,0,1
696972000,696972000,1310988,0.004261058,-0.0005326322,0.0005326322,13.195374,0,1
697972000,697972000,1310988,-0.0063915867,-0.0063915867,0.0037284256,13.195221,0,1
698972000,698972000,1310988,-0.0010652645,0.00479369,0.0063915867,13.195129,0,1
699972000,699972000,1310988,-0.0026631611,-0.011185277,-0.0010652645,13.194946,0,1
700972000,700972000,1310988,-0.0026631611,0.007456851,-0.0031957934,13.194885,0,1
701972000,701972000,1310988,0.0037284256,-0.002130529,0.00479369,13.194794,0,1
702972000,702972000,1310988,-0.0015978967,-0.004261058,0.0058589545,13.194702,0,1
703972000,703972000,1310988,0.0005326322,0.0063915867,-0.0010652645,13.194733,0,1
704972000,704972000,1310988,0.0,0.0037284256,-0.004261058,13.194824,0,1
705972000,705972000,1310988,0.0026631611,-0.0005326322,0.0031957934,13.194977,0,1
706972000,706972000,1310988,-0.002130529,-0.0026631611,0.0058589545,13.195129,0,1
707972000,707972000,1310988,0.0015978967,-0.002130529,0.0,13.19519,0,1
708972000,708972000,1310988,0.002130529,0.0005326322,-0.0037284256,13.195221,0,1
709972000,709972000,1310988,0.0037284256,0.0,0.002130529,13.1953125,0,1
710972000,710972000,1310988,-0.0031957934,0.004261058,0.0063915867,13.195343,0,1
711972000,711972000,1310988,0.0010652645,-0.007989483,0.004261058,13.195282,0,1
712972000,712972000,1310988,0.0053263223,0.006924219,-0.0015978967,13.195435,0,1
713972000,713972000,1310988,0.0005326322,-0.0058589545,0.00479369,13.195374,0,1
714972000,714972000,1310988,0.0063915867,0.0063915867,0.004261058,13.195404,0,1
715972000,715972000,1310988,0.0,-0.010652645,-0.0058589545,13.195221,0,1
716972000,716972000,1310988,0.0015978967,-0.00958738,0.0005326322,13.195129,0,1
717972000,717972000,1310988,0.0015978967,-0.00479369,0.0031957934,13.195099,0,1
718972000,718972000,1310988,-0.0005326322,0.0,0.0031957934,13.195129,0,1
719972000,719972000,1310988,-0.0026631611,-0.0010652645,-0.0015978967,13.195099,0,1
720972000,720972000,1310988,0.002130529,-0.007456851,0.0053263223,13.195099,0,1
721972000,721972000,1310988,0.002130529,0.0005326322,-0.0015978967,13.195251,0,1
722972000,722972000,1310988,0.0053263223,0.0058589545,0.0005326322,13.195465,0,1
723972000,723972000,1310988,-0.008522116,-0.0026631611,-0.0015978967,13.195465,0,1
724972000,724972000,1310988,-0.0010652645,0.0063915867,-0.0031957934,13.195618,0,1
725972000,725972000,1310988,0.00479369,0.0026631611,0.009054748,13.195862,0,1
726972000,726972000,1310988,-0.0010652645,-0.010652645,0.0031957934,13.196045,0,1
727972000,727972000,1310988,0.0010652645,-0.0015978967,0.002130529,13.196167,0,1
728972000,728972000,1310988,-0.0005326322,-0.002130529,0.0015978967,13.19635,0,1
729972000,729972000,1310988,0.002130529,0.008522116,-0.0005326322,13.196564,0,1
730972000,730972000,1310988,0.007456851,0.0026631611,0.0015978967,13.196564,0,1
731972000,731972000,1310988,-0.00479369,0.002130529,0.0037284256,13.196594,0,1
732972000,732972000,1310988,-0.004261058,0.009054748,0.004261058,13.196594,0,1
733972000,733972000,1310988,-0.004261058,0.0010652645,0.002130529,13.196533,0,1
734972000,734972000,1310988,0.0005326322,-0.0015978967,-0.002130529,13.196411,0,1
735972000,735972000,1310988,-0.007456851,-0.0005326322,0.009054748,13.196289,0,1
736972000,736972000,1310988,-0.0058589545,-0.008522116,-0.006924219,13.196167,0,1
737972000,737972000,1310988,0.0037284256,0.0037284256,-0.00479369,13.196014,0,1
738972000,738972000,1310988,0.0026631611,-0.007989483,-0.0015978967,13.195892,0,1
739972000,739972000,1310988,0.010120012,0.0,0.0037284256,13.195892,0,1
740972000,740972000,1310988,0.004261058,0.0,0.0015978967,13.195892,0,1
741972000,741972000,1310988,0.0015978967,0.0,0.004261058,13.195831,0,1
742972000,742972000,1310988,0.0,0.007456851,-0.002130529,13.19574,0,1
743972000,743972000,1310988,0.0005326322,0.0005326322,0.0005326322,13.195496,0,1
744972000,744972000,1310988,-0.002130529,-0.0053263223,0.0053263223,13.195282,0,1
745972000,745972000,1310988,0.0005326322,0.0005326322,-0.0058589545,13.19519,0,1
746972000,746972000,1310988,-0.0010652645,0.010120012,0.006924219,13.194977,0,1
747972000,747972000,1310988,0.0063915867,-0.004261058,-0.0015978967,13.194885,0,1
748972000,748972000,1310988,0.004261058,0.0015978967,0.0005326322,13.194916,0,1
749972000,749972000,1310988,0.0026631611,-0.002130529,0.0,13.194855,0,1
750972000,750972000,1310988,0.0,-0.014913702,0.0037284256,13.195007,0,1
751972000,751972000,1310988,0.0063915867,-0.004261058,0.008522116,13.195251,0,1
752972000,752972000,1310988,0.0010652645,0.0,0.0053263223,13.195465,0,1
753972000,753972000,1310988,0.0005326322,0.0010652645,-0.0037284256,13.195526,0,1
754972000,754972000,1310988,0.0053263223,0.0037284256,-0.00479369,13.195526,0,1
755972000,755972000,1310988,0.004261058,0.0026631611,0.0015978967,13.195679,0,1
756972000,756972000,1310988,0.0031957934,0.0037284256,-0.002130529,13.195892,0,1
757972000,757972000,1310988,0.0,0.0026631611,0.0031957934,13.196014,0,1
758972000,758972000,1310988,-0.0010652645,-0.0026631611,0.00479369,13.196167,0,1
759972000,759972000,1310988,0.0053263223,-0.0053263223,0.0005326322,13.19635,0,1
760972000,760972000,1310988,0.0010652645,-0.0015978967,0.002130529,13.196381,0,1
